{
  "type" : "FeatureCollection",
  "crs" : {
    "type" : "name",
    "properties" : {
      "name" : "urn:ogc:def:crs:OGC:1.3:CRS84"
    }
  },
  "features" : [ {
    "type" : "Feature",
    "properties" : {
      "district" : "士林區",
      "name" : "天母北路87巷16號"
    },
    "geometry" : {
      "type" : "Point",
      "coordinates" : [ 121.5280403, 25.1231588 ]
    }
  }, {
    "type" : "Feature",
    "properties" : {
      "district" : "士林區",
      "name" : "延平北路五段213巷17號"
    },
    "geometry" : {
      "type" : "Point",
      "coordinates" : [ 121.5087135, 25.0834752 ]
    }
  }, {
    "type" : "Feature",
    "properties" : {
      "district" : "大同區",
      "name" : "敦煌路165號2樓"
    },
    "geometry" : {
      "type" : "Point",
      "coordinates" : [ 121.5113142, 25.0766402 ]
    }
  }, {
    "type" : "Feature",
    "properties" : {
      "district" : "大安區",
      "name" : "和平東路二段28號"
    },
    "geometry" : {
      "type" : "Point",
      "coordinates" : [ 121.5367396, 25.025574 ]
    }
  }, {
    "type" : "Feature",
    "properties" : {
      "district" : "中山區",
      "name" : "吉林路221號"
    },
    "geometry" : {
      "type" : "Point",
      "coordinates" : [ 121.5303934, 25.0606172 ]
    }
  }, {
    "type" : "Feature",
    "properties" : {
      "district" : "中山區",
      "name" : "長春路346號"
    },
    "geometry" : {
      "type" : "Point",
      "coordinates" : [ 121.5412269, 25.0545013 ]
    }
  }, {
    "type" : "Feature",
    "properties" : {
      "district" : "中山區",
      "name" : "新生北路二段41巷21號"
    },
    "geometry" : {
      "type" : "Point",
      "coordinates" : [ 121.5291685, 25.0553983 ]
    }
  }, {
    "type" : "Feature",
    "properties" : {
      "district" : "內湖區",
      "name" : "港墘路113號5樓"
    },
    "geometry" : {
      "type" : "Point",
      "coordinates" : [ 121.5764905, 25.0785872 ]
    }
  }, {
    "type" : "Feature",
    "properties" : {
      "district" : "內湖區",
      "name" : "環山路二段68號"
    },
    "geometry" : {
      "type" : "Point",
      "coordinates" : [ 121.5745443, 25.085042 ]
    }
  }, {
    "type" : "Feature",
    "properties" : {
      "district" : "內湖區",
      "name" : "環山路二段10巷2號"
    },
    "geometry" : {
      "type" : "Point",
      "coordinates" : [ 121.5712025, 25.0869284 ]
    }
  }, {
    "type" : "Feature",
    "properties" : {
      "district" : "文山區",
      "name" : "木新路2段86號至94號"
    },
    "geometry" : {
      "type" : "Point",
      "coordinates" : [ 121.5704516, 24.9853288 ]
    }
  }, {
    "type" : "Feature",
    "properties" : {
      "district" : "北投區",
      "name" : "光明路73巷11號"
    },
    "geometry" : {
      "type" : "Point",
      "coordinates" : [ 121.499965, 25.1331786 ]
    }
  }, {
    "type" : "Feature",
    "properties" : {
      "district" : "北投區",
      "name" : "光明路74號"
    },
    "geometry" : {
      "type" : "Point",
      "coordinates" : [ 121.500471, 25.1329399 ]
    }
  }, {
    "type" : "Feature",
    "properties" : {
      "district" : "北投區",
      "name" : "泉源路29之3號"
    },
    "geometry" : {
      "type" : "Point",
      "coordinates" : [ 121.5060232, 25.140095 ]
    }
  }, {
    "type" : "Feature",
    "properties" : {
      "district" : "北投區",
      "name" : "泉源路33之2號"
    },
    "geometry" : {
      "type" : "Point",
      "coordinates" : [ 121.5060591, 25.1402311 ]
    }
  }, {
    "type" : "Feature",
    "properties" : {
      "district" : "北投區",
      "name" : "清江路156號1樓"
    },
    "geometry" : {
      "type" : "Point",
      "coordinates" : [ 121.501847, 25.1284656 ]
    }
  }, {
    "type" : "Feature",
    "properties" : {
      "district" : "北投區",
      "name" : "崗山路5巷16號3樓"
    },
    "geometry" : {
      "type" : "Point",
      "coordinates" : [ 121.486149, 25.1401644 ]
    }
  }, {
    "type" : "Feature",
    "properties" : {
      "district" : "北投區",
      "name" : "知行路293巷10號"
    },
    "geometry" : {
      "type" : "Point",
      "coordinates" : [ 121.46742431912418, 25.1218553 ]
    }
  }, {
    "type" : "Feature",
    "properties" : {
      "district" : "北投區",
      "name" : "中央北路三段124號"
    },
    "geometry" : {
      "type" : "Point",
      "coordinates" : [ 121.4832747, 25.1374331 ]
    }
  }, {
    "type" : "Feature",
    "properties" : {
      "district" : "松山區",
      "name" : "南京東路四段99號"
    },
    "geometry" : {
      "type" : "Point",
      "coordinates" : [ 121.5543781, 25.0518201 ]
    }
  }, {
    "type" : "Feature",
    "properties" : {
      "district" : "信義區",
      "name" : "中坡南路136號"
    },
    "geometry" : {
      "type" : "Point",
      "coordinates" : [ 121.5846847, 25.0403134 ]
    }
  }, {
    "type" : "Feature",
    "properties" : {
      "district" : "信義區",
      "name" : "信義路四段405號"
    },
    "geometry" : {
      "type" : "Point",
      "coordinates" : [ 121.5588708, 25.0332664 ]
    }
  }, {
    "type" : "Feature",
    "properties" : {
      "district" : "信義區",
      "name" : "吳興街507號"
    },
    "geometry" : {
      "type" : "Point",
      "coordinates" : [ 121.5698013, 25.0234231 ]
    }
  }, {
    "type" : "Feature",
    "properties" : {
      "district" : "信義區",
      "name" : "吳興街511號"
    },
    "geometry" : {
      "type" : "Point",
      "coordinates" : [ 121.5698013, 25.0234231 ]
    }
  }, {
    "type" : "Feature",
    "properties" : {
      "district" : "信義區",
      "name" : "松隆路202號"
    },
    "geometry" : {
      "type" : "Point",
      "coordinates" : [ 121.5726287, 25.0469819 ]
    }
  }, {
    "type" : "Feature",
    "properties" : {
      "district" : "信義區",
      "name" : "永吉路342號"
    },
    "geometry" : {
      "type" : "Point",
      "coordinates" : [ 121.5760824, 25.045316 ]
    }
  }, {
    "type" : "Feature",
    "properties" : {
      "district" : "萬華區",
      "name" : "長泰街48號"
    },
    "geometry" : {
      "type" : "Point",
      "coordinates" : [ 121.4998734, 25.0228497 ]
    }
  } ]
}