{
"type": "FeatureCollection",
"crs": { "type": "name", "properties": { "name": "urn:ogc:def:crs:OGC:1.3:CRS84" } },
"features": [
{ "type": "Feature", "properties": { "OBJECTID": 3.0, "code": "B01010002", "name": "臺北市三玉啟能中心", "attr": "公設民營", "type": "住宿機構", "town": "士林區", "address": "臺北市士林區忠誠路二段53巷7號3、4、7樓", "tel": "(02)8866-5931", "fax": "(02)8866-5930", "x": 303689.90625, "y": 2778225.0, "lng": 121.53237915, "lat": 25.11142349, "is_accessi": "是", "_id": null, "_importdate": null, "addr": null }, "geometry": { "type": "Point", "coordinates": [ 121.532375357083936, 25.111423740926853 ] } },
{ "type": "Feature", "properties": { "OBJECTID": 4.0, "code": "B01010003", "name": "臺北市永福之家", "attr": "公設民營", "type": "住宿機構", "town": "士林區", "address": "臺北市士林區永福里5鄰莊頂路2號", "tel": "(02)2861-1381#2011", "fax": "(02)2862-1793", "x": 305415.1875, "y": 2778159.0, "lng": 121.54947662, "lat": 25.11076546, "is_accessi": "否", "_id": null, "_importdate": null, "addr": null }, "geometry": { "type": "Point", "coordinates": [ 121.549479716823441, 25.110765497058438 ] } },
{ "type": "Feature", "properties": { "OBJECTID": 5.0, "code": "B01010004", "name": "臺北市立陽明教養院(華岡院區)", "attr": "公立", "type": "住宿機構", "town": "士林區", "address": "臺北市士林區陽明里8鄰凱旋路61巷4弄9號", "tel": "(02)2861-1380", "fax": "(02)2861-8004", "x": 304569.59375, "y": 2780859.0, "lng": 121.54120636, "lat": 25.13517189, "is_accessi": "否", "_id": null, "_importdate": null, "addr": null }, "geometry": { "type": "Point", "coordinates": [ 121.541202675637734, 25.135171467164785 ] } },
{ "type": "Feature", "properties": { "OBJECTID": 6.0, "code": "B01010005", "name": "臺北市私立聖安娜之家", "attr": "私立", "type": "住宿機構", "town": "士林區", "address": "臺北市士林區中山北路七段181巷1號", "tel": "(02)2871-4397", "fax": "(02)2871-1920", "x": 303668.0, "y": 2779673.0, "lng": 121.5322113, "lat": 25.12449646, "is_accessi": "是", "_id": null, "_importdate": null, "addr": null }, "geometry": { "type": "Point", "coordinates": [ 121.532214822736293, 25.124496844497184 ] } },
{ "type": "Feature", "properties": { "OBJECTID": 7.0, "code": "B01010006", "name": "臺北市大龍養護中心", "attr": "公設民營", "type": "住宿機構", "town": "大同區", "address": "臺北市大同區民族西路105號1-3樓", "tel": "(02)2587-5879", "fax": "(02)2587-5729", "x": 302167.90625, "y": 2773499.0, "lng": 121.5171051, "lat": 25.06881142, "is_accessi": "是", "_id": null, "_importdate": null, "addr": null }, "geometry": { "type": "Point", "coordinates": [ 121.51710474325823, 25.06881128295958 ] } },
{ "type": "Feature", "properties": { "OBJECTID": 9.0, "code": "B01010008", "name": "臺北市弘愛服務中心", "attr": "公設民營", "type": "住宿機構", "town": "中正區", "address": "臺北市中正區濟南路二段46號四樓", "tel": "(02)2393-7655", "fax": "(02)2321-6338", "x": 303572.1875, "y": 2770352.0, "lng": 121.53089905, "lat": 25.04035187, "is_accessi": "是", "_id": null, "_importdate": null, "addr": null }, "geometry": { "type": "Point", "coordinates": [ 121.530901739973757, 25.040351262003231 ] } },
{ "type": "Feature", "properties": { "OBJECTID": 10.0, "code": "B01010009", "name": "臺北市私立創世清寒植物人安養院", "attr": "私立", "type": "住宿機構", "town": "中正區", "address": "臺北市中正區北平東路28號2樓", "tel": "(02)2397-0101", "fax": "(02)3393-1539", "x": 303012.5, "y": 2770960.0, "lng": 121.52537537000001, "lat": 25.04586029, "is_accessi": "是", "_id": null, "_importdate": null, "addr": null }, "geometry": { "type": "Point", "coordinates": [ 121.525378672008813, 25.045859969200272 ] } },
{ "type": "Feature", "properties": { "OBJECTID": 11.0, "code": "B01010010", "name": "臺北市金龍發展中心", "attr": "公設民營", "type": "住宿機構", "town": "內湖區", "address": "臺北市內湖區金龍路136-1號", "tel": "(02)2793-3059", "fax": "(02)8792-9217", "x": 309513.59375, "y": 2775410.0, "lng": 121.58999634, "lat": 25.08579254, "is_accessi": "是", "_id": null, "_importdate": null, "addr": null }, "geometry": { "type": "Point", "coordinates": [ 121.58999746125977, 25.085791969386303 ] } },
{ "type": "Feature", "properties": { "OBJECTID": 12.0, "code": "B01010011", "name": "臺北市興隆照顧中心", "attr": "公設民營", "type": "住宿機構", "town": "文山區", "address": "臺北市文山區興隆路四段105巷45號2樓", "tel": "(02)2938-1841", "fax": "(02)2938-1838", "x": 306786.1875, "y": 2764584.75, "lng": 121.56251526, "lat": 24.98816681, "is_accessi": "是", "_id": null, "_importdate": null, "addr": null }, "geometry": { "type": "Point", "coordinates": [ 121.562514123508308, 24.988169986673604 ] } },
{ "type": "Feature", "properties": { "OBJECTID": 13.0, "code": "B01010011", "name": "臺北市興隆照顧中心", "attr": "公設民營", "type": "住宿機構", "town": "文山區", "address": "臺北市文山區興隆路四段105巷45號2樓", "tel": "(02)2938-1841", "fax": "(02)2938-1838", "x": 306786.1875, "y": 2764584.75, "lng": 121.56251526, "lat": 24.98816681, "is_accessi": "是", "_id": null, "_importdate": null, "addr": null }, "geometry": { "type": "Point", "coordinates": [ 121.562514123508308, 24.988169986673604 ] } },
{ "type": "Feature", "properties": { "OBJECTID": 14.0, "code": "B01040004", "name": "臺北市私立心路社區家園", "attr": "私立", "type": "團體家庭", "town": "文山區", "address": "臺北市文山區興旺里22鄰福興路63巷4弄29號一樓", "tel": "(02)2932-1015", "fax": "(02)2788-6435", "x": 305414.8125, "y": 2766408.0, "lng": 121.5490036, "lat": 25.00467873, "is_accessi": "是", "_id": null, "_importdate": null, "addr": null }, "geometry": { "type": "Point", "coordinates": [ 121.549002890701686, 25.004678706731468 ] } },
{ "type": "Feature", "properties": { "OBJECTID": 15.0, "code": "B01010013", "name": "臺北市私立文山創世清寒植物人安養院", "attr": "私立", "type": "住宿機構", "town": "文山區", "address": "臺北市文山區萬和街8號五樓", "tel": "(02)2239-7802", "fax": "(02)8230-1076", "x": 307305.90625, "y": 2766120.0, "lng": 121.56772614, "lat": 25.00200844, "is_accessi": "是", "_id": null, "_importdate": null, "addr": null }, "geometry": { "type": "Point", "coordinates": [ 121.567725644110524, 25.002008331859646 ] } },
{ "type": "Feature", "properties": { "OBJECTID": 17.0, "code": "B01010015", "name": "臺北市私立彩虹村家園", "attr": "私立", "type": "住宿機構", "town": "北投區", "address": "臺北市北投區泉源路華南巷18號一樓", "tel": "(02)2893-6122", "fax": "(02)2893-6131", "x": 301121.59375, "y": 2781411.0, "lng": 121.50702667, "lat": 25.14027596, "is_accessi": "是", "_id": null, "_importdate": null, "addr": null }, "geometry": { "type": "Point", "coordinates": [ 121.507028260913032, 25.140275793998999 ] } },
{ "type": "Feature", "properties": { "OBJECTID": 18.0, "code": "B01010016", "name": "臺北市私立陽明養護中心", "attr": "私立", "type": "住宿機構", "town": "北投區", "address": "臺北市北投區公舘路209巷18號", "tel": "(02)2891-2563", "fax": "(02)2893-6120", "x": 301303.03125, "y": 2779998.5, "lng": 121.5087738, "lat": 25.1275177, "is_accessi": "是", "_id": null, "_importdate": null, "addr": null }, "geometry": { "type": "Point", "coordinates": [ 121.508774527262304, 25.127522284509855 ] } },
{ "type": "Feature", "properties": { "OBJECTID": 19.0, "code": "B01010016", "name": "臺北市私立陽明養護中心", "attr": "私立", "type": "住宿機構", "town": "北投區", "address": "臺北市北投區公舘路209巷18號", "tel": "(02)2891-2563", "fax": "(02)2893-6120", "x": 301303.03125, "y": 2779998.5, "lng": 121.5087738, "lat": 25.1275177, "is_accessi": "是", "_id": null, "_importdate": null, "addr": null }, "geometry": { "type": "Point", "coordinates": [ 121.508774527262304, 25.127522284509855 ] } },
{ "type": "Feature", "properties": { "OBJECTID": 20.0, "code": "B01010017", "name": "臺北市私立永愛發展中心", "attr": "私立", "type": "住宿機構", "town": "信義區", "address": "臺北市信義區信義路五段150巷316號五樓", "tel": "(02)2720-8817", "fax": "(02)2720-4472", "x": 307483.8125, "y": 2768879.0, "lng": 121.56960297000001, "lat": 25.02690887, "is_accessi": "是", "_id": null, "_importdate": null, "addr": null }, "geometry": { "type": "Point", "coordinates": [ 121.569602919008105, 25.026909618456809 ] } },
{ "type": "Feature", "properties": { "OBJECTID": 21.0, "code": "B01010018", "name": "臺北市南港養護中心", "attr": "公設民營", "type": "住宿機構", "town": "南港區", "address": "臺北市南港區松河街550號一樓", "tel": "(02)2783-4274", "fax": "(02)2783-4925", "x": 310390.8125, "y": 2772337.0, "lng": 121.59855652, "lat": 25.05801392, "is_accessi": "是", "_id": null, "_importdate": null, "addr": null }, "geometry": { "type": "Point", "coordinates": [ 121.598558486870346, 25.058014708826072 ] } },
{ "type": "Feature", "properties": { "OBJECTID": 22.0, "code": "B01010019", "name": "臺北市東明扶愛家園", "attr": "公設民營", "type": "住宿機構", "town": "南港區", "address": "臺北市南港區南港路二段38巷8弄1號", "tel": "(02)2760-6277", "fax": "(02)2764-5303", "x": 310969.78125, "y": 2772012.5, "lng": 121.60428619, "lat": 25.05506134, "is_accessi": "是", "_id": null, "_importdate": null, "addr": null }, "geometry": { "type": "Point", "coordinates": [ 121.60428260369568, 25.055066458929257 ] } },
{ "type": "Feature", "properties": { "OBJECTID": 23.0, "code": "B01010019", "name": "臺北市東明扶愛家園", "attr": "公設民營", "type": "住宿機構", "town": "南港區", "address": "臺北市南港區南港路二段38巷8弄1號", "tel": "(02)2760-6277", "fax": "(02)2764-5303", "x": 310969.78125, "y": 2772012.5, "lng": 121.60427856, "lat": 25.05506134, "is_accessi": "是", "_id": null, "_importdate": null, "addr": null }, "geometry": { "type": "Point", "coordinates": [ 121.60428260369568, 25.055066458929257 ] } },
{ "type": "Feature", "properties": { "OBJECTID": 24.0, "code": "B01010020", "name": "臺北市一壽照顧中心", "attr": "公設民營", "type": "住宿機構", "town": "文山區", "address": "臺北市文山區樟新里5鄰一壽街22號三、四樓", "tel": "(02)2938-3438", "fax": "(02)2938-3136", "x": 306159.90625, "y": 2763646.0, "lng": 121.55627441, "lat": 24.97971535, "is_accessi": "是", "_id": null, "_importdate": null, "addr": null }, "geometry": { "type": "Point", "coordinates": [ 121.556272195393191, 24.979716039634656 ] } },
{ "type": "Feature", "properties": { "OBJECTID": 29.0, "code": "B01020006", "name": "臺北市萬大社區居住家園", "attr": "公設民營", "type": "B0102", "town": "萬華區", "address": "臺北市萬華區萬大路411、413號", "tel": "(02)23092434", "fax": null, "x": 300526.1875, "y": 2769426.0, "lng": 121.50067902000001, "lat": 25.03209686, "is_accessi": "是", "_id": null, "_importdate": null, "addr": null }, "geometry": { "type": "Point", "coordinates": [ 121.500682810510753, 25.032096126888739 ] } },
{ "type": "Feature", "properties": { "OBJECTID": 30.0, "code": "B01040001", "name": "臺北市健軍團體家庭", "attr": "公設民營", "type": "團體家庭", "town": "中正區", "address": "臺北市中正區富水里4鄰汀州路三段60巷2弄6號", "tel": "(02)2365-9037", "fax": "(02)2365-9037", "x": 303564.40625, "y": 2767599.0, "lng": 121.53071594, "lat": 25.01549721, "is_accessi": "是", "_id": null, "_importdate": null, "addr": null }, "geometry": { "type": "Point", "coordinates": [ 121.530717533640413, 25.015497565118984 ] } },
{ "type": "Feature", "properties": { "OBJECTID": 31.0, "code": "B01040002", "name": "臺北市興隆團體家庭", "attr": "公設民營", "type": "團體家庭", "town": "文山區", "address": "臺北市文山區木柵路二段138巷33號3樓", "tel": "(02)2936-0710", "fax": null, "x": 306765.40625, "y": 2764570.0, "lng": 121.56230927, "lat": 24.9880352, "is_accessi": "是", "_id": null, "_importdate": null, "addr": null }, "geometry": { "type": "Point", "coordinates": [ 121.562307474181736, 24.988035345938936 ] } },
{ "type": "Feature", "properties": { "OBJECTID": 32.0, "code": "B01040002", "name": "臺北市興隆團體家庭", "attr": "公設民營", "type": "團體家庭", "town": "文山區", "address": "臺北市文山區木柵路二段138巷33號3樓", "tel": "(02)2936-0710", "fax": null, "x": 306765.40625, "y": 2764570.0, "lng": 121.56230927, "lat": 24.9880352, "is_accessi": "是", "_id": null, "_importdate": null, "addr": null }, "geometry": { "type": "Point", "coordinates": [ 121.562307474181736, 24.988035345938936 ] } },
{ "type": "Feature", "properties": { "OBJECTID": 33.0, "code": "B01040003", "name": "臺北市三興團體家庭", "attr": "公設民營", "type": "團體家庭", "town": "信義區", "address": "臺北市信義區景勤里5鄰吳興街156巷6號3樓", "tel": "(02)2739-1032", "fax": "(02)2739-2920", "x": 306527.40625, "y": 2769037.0, "lng": 121.56013489, "lat": 25.02837181, "is_accessi": "是", "_id": null, "_importdate": null, "addr": null }, "geometry": { "type": "Point", "coordinates": [ 121.560132854328003, 25.028372041252727 ] } },
{ "type": "Feature", "properties": { "OBJECTID": 34.0, "code": "B02010001", "name": "臺北市私立自立社區學園", "attr": "私立", "type": "日間服務機構", "town": "士林區", "address": "臺北市士林區德行西路93巷7號地下一樓之1", "tel": "(02)2835-8805", "fax": "(02)2837-5355", "x": 302533.90625, "y": 2777495.0, "lng": 121.52088165000001, "lat": 25.10487366, "is_accessi": "是", "_id": null, "_importdate": null, "addr": null }, "geometry": { "type": "Point", "coordinates": [ 121.520885210737006, 25.104874101483695 ] } },
{ "type": "Feature", "properties": { "OBJECTID": 35.0, "code": "B02010002", "name": "臺北市大同發展中心(兼辦早療服務)", "attr": "公設民營", "type": "日間服務機構", "town": "大同區", "address": "臺北市大同區昌吉街52號六-七樓", "tel": "(02)2598-6886", "fax": "(02)2598-6856", "x": 302092.09375, "y": 2773167.0, "lng": 121.51634216, "lat": 25.06581688, "is_accessi": "是", "_id": null, "_importdate": null, "addr": null }, "geometry": { "type": "Point", "coordinates": [ 121.516340848660221, 25.065816624322974 ] } },
{ "type": "Feature", "properties": { "OBJECTID": 36.0, "code": "B02010003", "name": "臺北市博愛發展中心", "attr": "公設民營", "type": "日間服務機構", "town": "中山區", "address": "臺北市中山區敬業三路160號", "tel": "(02)8509-6395", "fax": "(02)8509-6962", "x": 306150.5, "y": 2774702.0, "lng": 121.556633, "lat": 25.07952881, "is_accessi": "是", "_id": null, "_importdate": null, "addr": null }, "geometry": { "type": "Point", "coordinates": [ 121.556629211690691, 25.079529061408909 ] } },
{ "type": "Feature", "properties": { "OBJECTID": 37.0, "code": "B02010004", "name": "臺北市私立陽光重建中心", "attr": "私立", "type": "日間服務機構", "town": "中山區", "address": "臺北市中山區南京東路三段91號三樓", "tel": "(02)2507-8006", "fax": "(02)2506-1073", "x": 304380.8125, "y": 2771663.0, "lng": 121.53896332, "lat": 25.05215836, "is_accessi": "是", "_id": null, "_importdate": null, "addr": null }, "geometry": { "type": "Point", "coordinates": [ 121.538966445441417, 25.052158025540496 ] } },
{ "type": "Feature", "properties": { "OBJECTID": 38.0, "code": "B02010005", "name": "臺北市私立心路兒童發展中心(兼辦早療服務)", "attr": "私立", "type": "日間服務機構", "town": "中山區", "address": "臺北市中山區復興北路232號", "tel": "(02)2508-0635", "fax": "(02)2508-0639", "x": 304878.59375, "y": 2772227.0, "lng": 121.54392242, "lat": 25.0572319, "is_accessi": "是", "_id": null, "_importdate": null, "addr": null }, "geometry": { "type": "Point", "coordinates": [ 121.543922423448237, 25.057231782037132 ] } },
{ "type": "Feature", "properties": { "OBJECTID": 39.0, "code": "B02010006", "name": "臺北市城中發展中心", "attr": "公設民營", "type": "日間服務機構", "town": "中正區", "address": "臺北市中正區汀州路二段172號", "tel": "(02)2364-3036", "fax": "(02)2364-3040", "x": 302688.3125, "y": 2768512.0, "lng": 121.52207184, "lat": 25.02377129, "is_accessi": "是", "_id": null, "_importdate": null, "addr": null }, "geometry": { "type": "Point", "coordinates": [ 121.522072257939982, 25.023770840885785 ] } },
{ "type": "Feature", "properties": { "OBJECTID": 40.0, "code": "B02010007", "name": "臺北市南海發展中心", "attr": "公設民營", "type": "日間服務機構", "town": "中正區", "address": "臺北市中正區延平南路207號1-2樓", "tel": "(02)2311-3946", "fax": "(02)2311-0348", "x": 301230.46875, "y": 2769516.0, "lng": 121.50766754, "lat": 25.0328846, "is_accessi": "是", "_id": null, "_importdate": null, "addr": null }, "geometry": { "type": "Point", "coordinates": [ 121.507665108743964, 25.032884970964442 ] } },
{ "type": "Feature", "properties": { "OBJECTID": 41.0, "code": "B02010007", "name": "臺北市南海發展中心", "attr": "公設民營", "type": "日間服務機構", "town": "中正區", "address": "臺北市中正區延平南路207號1-2樓", "tel": "(02)2311-3946", "fax": "(02)2311-0348", "x": 301230.46875, "y": 2769516.0, "lng": 121.50766754, "lat": 25.03288651, "is_accessi": "是", "_id": null, "_importdate": null, "addr": null }, "geometry": { "type": "Point", "coordinates": [ 121.507665108743964, 25.032884970964442 ] } },
{ "type": "Feature", "properties": { "OBJECTID": 42.0, "code": "B02010008", "name": "臺北市私立婦幼家園(兼辦早療服務)", "attr": "私立", "type": "日間服務機構", "town": "內湖區", "address": "臺北市內湖區民權東路六段180巷42弄6號", "tel": "(02)8792-5072", "fax": "(02)8792-4583", "x": 309721.8125, "y": 2773313.0, "lng": 121.59197235000001, "lat": 25.06685257, "is_accessi": "是", "_id": null, "_importdate": null, "addr": null }, "geometry": { "type": "Point", "coordinates": [ 121.591970366039263, 25.0668524397969 ] } },
{ "type": "Feature", "properties": { "OBJECTID": 43.0, "code": "B02010009", "name": "臺北市萬芳啟能中心", "attr": "公設民營", "type": "日間服務機構", "town": "文山區", "address": "臺北市文山區萬美街一段51號1樓", "tel": "(02)2239-5646", "fax": "(02)2239-2468", "x": 307382.3125, "y": 2766153.0, "lng": 121.56848145, "lat": 25.00230408, "is_accessi": "是", "_id": null, "_importdate": null, "addr": null }, "geometry": { "type": "Point", "coordinates": [ 121.568483875309099, 25.002303363110048 ] } },
{ "type": "Feature", "properties": { "OBJECTID": 44.0, "code": "B02010010", "name": "臺北市萬芳發展中心(兼辦早療服務)", "attr": "公設民營", "type": "日間服務機構", "town": "文山區", "address": "臺北市文山區萬美街一段55號二樓", "tel": "(02)2239-6169", "fax": "(02)2239-6170", "x": 307345.3125, "y": 2766157.0, "lng": 121.56811523, "lat": 25.00234032, "is_accessi": "是", "_id": null, "_importdate": null, "addr": null }, "geometry": { "type": "Point", "coordinates": [ 121.568117498257919, 25.002340875225809 ] } },
{ "type": "Feature", "properties": { "OBJECTID": 45.0, "code": "B02010011", "name": "臺北市永明發展中心(兼辦早療服務)", "attr": "公設民營", "type": "日間服務機構", "town": "北投區", "address": "臺北市北投區永明里4鄰石牌路二段115號四至六樓", "tel": "(02)2828-3051", "fax": "(02)2828-3054", "x": 302195.3125, "y": 2778978.0, "lng": 121.51758575, "lat": 25.11827469, "is_accessi": "是", "_id": null, "_importdate": null, "addr": null }, "geometry": { "type": "Point", "coordinates": [ 121.517584396761251, 25.118274196318879 ] } },
{ "type": "Feature", "properties": { "OBJECTID": 46.0, "code": "B02010012", "name": "臺北市私立至德聽語中心(提供早療服務)", "attr": "私立", "type": "日間服務機構", "town": "中正區", "address": "臺北市中正區0鄰中華路一段77號三樓", "tel": "(02)2820-1825", "fax": "(02)2820-1826", "x": 301239.8125, "y": 2770187.0, "lng": 121.50778198, "lat": 25.03894234, "is_accessi": "是", "_id": null, "_importdate": null, "addr": null }, "geometry": { "type": "Point", "coordinates": [ 121.50778220125855, 25.038942432731268 ] } },
{ "type": "Feature", "properties": { "OBJECTID": 47.0, "code": "B02010013", "name": "臺北市私立育成裕民發展中心", "attr": "私立", "type": "日間服務機構", "town": "北投區", "address": "臺北市北投區裕民一路41巷2弄18號", "tel": "(02)2821-8468", "fax": "(02)2821-0544", "x": 302291.6875, "y": 2778806.0, "lng": 121.5185318, "lat": 25.11671829, "is_accessi": "是", "_id": null, "_importdate": null, "addr": null }, "geometry": { "type": "Point", "coordinates": [ 121.518533745307693, 25.116718062529255 ] } },
{ "type": "Feature", "properties": { "OBJECTID": 48.0, "code": "B02010014", "name": "臺北市慈祐發展中心", "attr": "公設民營", "type": "日間服務機構", "town": "松山區", "address": "臺北市松山區八德路四段688號3-4樓", "tel": "(02)2742-1213", "fax": "(02)2742-0906", "x": 308207.6875, "y": 2771424.0, "lng": 121.57688141, "lat": 25.04985809, "is_accessi": "是", "_id": null, "_importdate": null, "addr": null }, "geometry": { "type": "Point", "coordinates": [ 121.576883168464448, 25.049857905002494 ] } },
{ "type": "Feature", "properties": { "OBJECTID": 49.0, "code": "B02010015", "name": "臺北市恆愛發展中心", "attr": "公設民營", "type": "日間服務機構", "town": "信義區", "address": "臺北市信義區松隆路36號六樓", "tel": "(02)2763-4210", "fax": "(02)2763-4219", "x": 307279.5, "y": 2770676.0, "lng": 121.56764984, "lat": 25.04314041, "is_accessi": "是", "_id": null, "_importdate": null, "addr": null }, "geometry": { "type": "Point", "coordinates": [ 121.567653256729571, 25.043140489481818 ] } },
{ "type": "Feature", "properties": { "OBJECTID": 50.0, "code": "B02010016", "name": "臺北市私立第一兒童發展中心(兼辦早療服務)", "attr": "私立", "type": "日間服務機構", "town": "信義區", "address": "臺北市信義區信義路五段150巷316號一樓", "tel": "(02)2729-4304", "fax": "(02)2758-0220", "x": 307483.8125, "y": 2768879.0, "lng": 121.56960297000001, "lat": 25.02690887, "is_accessi": "是", "_id": null, "_importdate": null, "addr": null }, "geometry": { "type": "Point", "coordinates": [ 121.569602919008105, 25.026909618456809 ] } },
{ "type": "Feature", "properties": { "OBJECTID": 51.0, "code": "B02010017", "name": "臺北市私立育仁兒童發展中心(兼辦早療服務)", "attr": "私立", "type": "日間服務機構", "town": "萬華區", "address": "臺北市萬華區萬大路387巷15號", "tel": "(02)2307-8393", "fax": "(02)2307-8917", "x": 300428.59375, "y": 2768323.0, "lng": 121.49967194, "lat": 25.0221405, "is_accessi": "是", "_id": null, "_importdate": null, "addr": null }, "geometry": { "type": "Point", "coordinates": [ 121.499675360100667, 25.022141492413098 ] } },
{ "type": "Feature", "properties": { "OBJECTID": 52.0, "code": "B02010018", "name": "臺北市私立育仁啟能中心", "attr": "私立", "type": "日間服務機構", "town": "萬華區", "address": "臺北市萬華區柳州街41號四樓", "tel": "(02)2382-1090", "fax": "(02)2314-3303", "x": 300998.40625, "y": 2770134.0, "lng": 121.50538635, "lat": 25.03847122, "is_accessi": "是", "_id": null, "_importdate": null, "addr": null }, "geometry": { "type": "Point", "coordinates": [ 121.50538805998157, 25.038472105140055 ] } },
{ "type": "Feature", "properties": { "OBJECTID": 54.0, "code": "B02020002", "name": "育成蘭興站", "attr": "私立", "type": "社區日間作業設施", "town": "士林區", "address": "臺北市士林區磺溪街88巷5號一樓", "tel": "(02)2838-4866", "fax": null, "x": 302818.1875, "y": 2777899.0, "lng": 121.52371979, "lat": 25.10851097, "is_accessi": "是", "_id": null, "_importdate": null, "addr": null }, "geometry": { "type": "Point", "coordinates": [ 121.523719551118035, 25.108511435701153 ] } },
{ "type": "Feature", "properties": { "OBJECTID": 55.0, "code": "B02020003", "name": "心願工坊", "attr": "公設民營", "type": "社區日間作業設施", "town": "大同區", "address": "臺北市大同區昌吉街52號八樓", "tel": "(02)2592-9960", "fax": null, "x": 302092.09375, "y": 2773167.0, "lng": 121.51634216, "lat": 25.06581688, "is_accessi": "是", "_id": null, "_importdate": null, "addr": null }, "geometry": { "type": "Point", "coordinates": [ 121.516340848660221, 25.065816624322974 ] } },
{ "type": "Feature", "properties": { "OBJECTID": 56.0, "code": "B02020004", "name": "大安工坊", "attr": "公設民營", "type": "社區日間作業設施", "town": "大安區", "address": "臺北市大安區瑞安街73號三樓", "tel": "(02)2707-3050", "fax": null, "x": 304607.59375, "y": 2769024.0, "lng": 121.54110718, "lat": 25.02832413, "is_accessi": "是", "_id": null, "_importdate": null, "addr": null }, "geometry": { "type": "Point", "coordinates": [ 121.541109625868103, 25.028325146957162 ] } },
{ "type": "Feature", "properties": { "OBJECTID": 57.0, "code": "B02020005", "name": "天生我才大安站", "attr": "其他", "type": "社區日間作業設施", "town": "大安區", "address": "臺北市大安區敦化南路二段200巷16號五樓", "tel": "(02)2738-2851", "fax": null, "x": 305264.59375, "y": 2768413.0, "lng": 121.54759216, "lat": 25.02278519, "is_accessi": "是", "_id": null, "_importdate": null, "addr": null }, "geometry": { "type": "Point", "coordinates": [ 121.547595163011309, 25.022785235138201 ] } },
{ "type": "Feature", "properties": { "OBJECTID": 58.0, "code": "B02020006", "name": "中山工坊", "attr": "其他", "type": "社區日間作業設施", "town": "中山區", "address": "臺北市中山區建國北路二段260、262號3樓", "tel": "(02)2501-6506#10", "fax": null, "x": 304249.8125, "y": 2772637.0, "lng": 121.53770447, "lat": 25.06095505, "is_accessi": "是", "_id": null, "_importdate": null, "addr": null }, "geometry": { "type": "Point", "coordinates": [ 121.537706520995272, 25.060955919708061 ] } },
{ "type": "Feature", "properties": { "OBJECTID": 59.0, "code": "B02020007", "name": "古亭工坊", "attr": "公設民營", "type": "社區日間作業設施", "town": "中正區", "address": "臺北市中正區羅斯福路二段150號", "tel": "(02)2362-0218", "fax": null, "x": 302801.90625, "y": 2768722.0, "lng": 121.52320862000001, "lat": 25.02566338, "is_accessi": "是", "_id": null, "_importdate": null, "addr": null }, "geometry": { "type": "Point", "coordinates": [ 121.523205886355484, 25.025662758324977 ] } },
{ "type": "Feature", "properties": { "OBJECTID": 60.0, "code": "B02020008", "name": "夢想工坊", "attr": "其他", "type": "社區日間作業設施", "town": "中正區", "address": "臺北市中正區南昌路二段192號五樓之3", "tel": "(02)2365-5312", "fax": null, "x": 302866.5, "y": 2768564.0, "lng": 121.52384186, "lat": 25.02423477, "is_accessi": "是", "_id": null, "_importdate": null, "addr": null }, "geometry": { "type": "Point", "coordinates": [ 121.523839921791208, 25.024234084206121 ] } },
{ "type": "Feature", "properties": { "OBJECTID": 61.0, "code": "B02020009", "name": "星兒工坊", "attr": "私立", "type": "社區日間作業設施", "town": "中正區", "address": "臺北市中正區寧波西街62號三樓", "tel": "(02)2394-4258", "fax": null, "x": 302186.5, "y": 2769243.0, "lng": 121.51712799000001, "lat": 25.03038788, "is_accessi": "是", "_id": null, "_importdate": null, "addr": null }, "geometry": { "type": "Point", "coordinates": [ 121.517127892070349, 25.030387672744041 ] } },
{ "type": "Feature", "properties": { "OBJECTID": 62.0, "code": "B02020010", "name": "肯納和平坊", "attr": "私立", "type": "社區日間作業設施", "town": "中正區", "address": "臺北市中正區和平西路二段6號四樓", "tel": "(02)7728-8659", "fax": null, "x": 301003.09375, "y": 2769544.0, "lng": 121.50540924000001, "lat": 25.0331459, "is_accessi": "是", "_id": null, "_importdate": null, "addr": null }, "geometry": { "type": "Point", "coordinates": [ 121.505412809099226, 25.033145434748768 ] } },
{ "type": "Feature", "properties": { "OBJECTID": 63.0, "code": "B02020011", "name": "內湖工坊", "attr": "公設民營", "type": "社區日間作業設施", "town": "內湖區", "address": "臺北市內湖區江南街71巷60號", "tel": "(02)7709-6051", "fax": null, "x": 308426.40625, "y": 2774133.0, "lng": 121.5791626, "lat": 25.07430649, "is_accessi": "是", "_id": null, "_importdate": null, "addr": null }, "geometry": { "type": "Point", "coordinates": [ 121.579165527639418, 25.074305901564902 ] } },
{ "type": "Feature", "properties": { "OBJECTID": 64.0, "code": "B02020012", "name": "文山工坊", "attr": "公設民營", "type": "社區日間作業設施", "town": "文山區", "address": "臺北市文山區興隆路四段105巷47號1樓(興隆公宅2區)", "tel": "(02)2234-6185", "fax": null, "x": 306847.8125, "y": 2764597.5, "lng": 121.56312561, "lat": 24.98828125, "is_accessi": "是", "_id": null, "_importdate": null, "addr": null }, "geometry": { "type": "Point", "coordinates": [ 121.563124833709551, 24.988285042401749 ] } },
{ "type": "Feature", "properties": { "OBJECTID": 65.0, "code": "B02020012", "name": "文山工坊", "attr": "公設民營", "type": "社區日間作業設施", "town": "文山區", "address": "臺北市文山區興隆路四段105巷47號1樓(興隆公宅2區)", "tel": "(02)2234-6185", "fax": null, "x": 306847.8125, "y": 2764597.5, "lng": 121.56312561, "lat": 24.98828125, "is_accessi": "是", "_id": null, "_importdate": null, "addr": null }, "geometry": { "type": "Point", "coordinates": [ 121.563124833709551, 24.988285042401749 ] } },
{ "type": "Feature", "properties": { "OBJECTID": 66.0, "code": "B02020013", "name": "北投工坊", "attr": "其他", "type": "社區日間作業設施", "town": "北投區", "address": "臺北市北投區石牌路二段99巷9號四樓", "tel": "(02)2822-6261", "fax": null, "x": 302099.90625, "y": 2778939.0, "lng": 121.51663971000001, "lat": 25.11792564, "is_accessi": "是", "_id": null, "_importdate": null, "addr": null }, "geometry": { "type": "Point", "coordinates": [ 121.51663693162206, 25.117925409057055 ] } },
{ "type": "Feature", "properties": { "OBJECTID": 67.0, "code": "B02020014", "name": "肯納行義坊", "attr": "私立", "type": "社區日間作業設施", "town": "北投區", "address": "臺北市北投區行義路129號", "tel": "(02)2874-1699", "fax": null, "x": 303269.3125, "y": 2780148.0, "lng": 121.52828217, "lat": 25.12879944, "is_accessi": "是", "_id": null, "_importdate": null, "addr": null }, "geometry": { "type": "Point", "coordinates": [ 121.528279569700743, 25.128799213569973 ] } },
{ "type": "Feature", "properties": { "OBJECTID": 68.0, "code": "B02020015", "name": "聖文生樂活工坊", "attr": "私立", "type": "社區日間作業設施", "town": "北投區", "address": "臺北市北投區石牌路二段90巷20號2樓", "tel": "(02)2823-7730", "fax": null, "x": 302179.3125, "y": 2778835.0, "lng": 121.51741791000001, "lat": 25.11698341, "is_accessi": "是", "_id": null, "_importdate": null, "addr": null }, "geometry": { "type": "Point", "coordinates": [ 121.517420305273092, 25.116983764745466 ] } },
{ "type": "Feature", "properties": { "OBJECTID": 69.0, "code": "B02020016", "name": "民生工坊", "attr": "公設民營", "type": "社區日間作業設施", "town": "松山區", "address": "臺北市松山區敦化北路199巷5號三樓", "tel": "(02)2716-0021", "fax": null, "x": 305646.3125, "y": 2772204.0, "lng": 121.55152893, "lat": 25.05699539, "is_accessi": "是", "_id": null, "_importdate": null, "addr": null }, "geometry": { "type": "Point", "coordinates": [ 121.551530180912522, 25.056996079044229 ] } },
{ "type": "Feature", "properties": { "OBJECTID": 70.0, "code": "B02020017", "name": "健康工坊_A處", "attr": "公設民營", "type": "社區日間作業設施", "town": "松山區", "address": "臺北市松山區健康路399號6樓", "tel": "(02)2758-8889", "fax": null, "x": 307395.90625, "y": 2771946.0, "lng": 121.56886292, "lat": 25.05460167, "is_accessi": "是", "_id": null, "_importdate": null, "addr": null }, "geometry": { "type": "Point", "coordinates": [ 121.568859669719288, 25.054601480884557 ] } },
{ "type": "Feature", "properties": { "OBJECTID": 71.0, "code": "B02020019", "name": "星扶工坊", "attr": "私立", "type": "社區日間作業設施", "town": "松山區", "address": "臺北市松山區八德路四段306號四樓", "tel": "(02)2528-5266", "fax": null, "x": 307247.90625, "y": 2771325.0, "lng": 121.56736755, "lat": 25.04899979, "is_accessi": "是", "_id": null, "_importdate": null, "addr": null }, "geometry": { "type": "Point", "coordinates": [ 121.567367068192297, 25.049000781131586 ] } },
{ "type": "Feature", "properties": { "OBJECTID": 73.0, "code": "B02020022", "name": "心朋友工作坊", "attr": "私立", "type": "社區日間作業設施", "town": "信義區", "address": "臺北市信義區和平東路三段391巷20弄16號", "tel": "(02)8732-6543", "fax": null, "x": 306333.40625, "y": 2768194.0, "lng": 121.55817413, "lat": 25.02076912, "is_accessi": "是", "_id": null, "_importdate": null, "addr": null }, "geometry": { "type": "Point", "coordinates": [ 121.558176147287185, 25.0207687341812 ] } },
{ "type": "Feature", "properties": { "OBJECTID": 77.0, "code": "B02030002", "name": "臺北市政府社會局委託財團法人喜憨兒社會福利基金會經營管理中山身障社區長照機構（日間照顧）", "attr": "公設民營", "type": "身障社區長照機構（日間照顧）", "town": "中山區", "address": "臺北市中山區長安西路5弄2號四樓", "tel": "(02)2521-1032", "fax": "(02)2521-1031", "x": 302545.75, "y": 2771472.75, "lng": 121.52077484, "lat": 25.05050468, "is_accessi": "是", "_id": null, "_importdate": null, "addr": null }, "geometry": { "type": "Point", "coordinates": [ 121.520773172530255, 25.050507591541891 ] } },
{ "type": "Feature", "properties": { "OBJECTID": 78.0, "code": "B02030002", "name": "臺北市政府社會局委託財團法人喜憨兒社會福利基金會經營管理中山身障社區長照機構（日間照顧）", "attr": "公設民營", "type": "身障社區長照機構（日間照顧）", "town": "中山區", "address": "臺北市中山區長安西路5弄2號四樓", "tel": "(02)2521-1032", "fax": "(02)2521-1031", "x": 302601.34375, "y": 2771395.5, "lng": 121.52132416000001, "lat": 25.04980659, "is_accessi": "是", "_id": null, "_importdate": null, "addr": null }, "geometry": { "type": "Point", "coordinates": [ 121.521320266378225, 25.049810510288154 ] } },
{ "type": "Feature", "properties": { "OBJECTID": 79.0, "code": "B02030003", "name": "臺北市政府社會局委託財團法人伊甸社會福利基金會經營管理臺北市民生身障社區長照機構（日間照顧）", "attr": "公設民營", "type": "身障社區長照機構（日間照顧）", "town": "松山區", "address": "臺北市松山區民生東路五段163之1號七樓", "tel": "(02)2760-9605", "fax": "(02)2760-9625", "x": 306761.0, "y": 2772437.0, "lng": 121.56258392, "lat": 25.05905724, "is_accessi": "是", "_id": null, "_importdate": null, "addr": null }, "geometry": { "type": "Point", "coordinates": [ 121.562587554864379, 25.059058135274572 ] } },
{ "type": "Feature", "properties": { "OBJECTID": 81.0, "code": "B02030005", "name": "臺北市政府社會局委託財團法人中華民國唐氏症基金會經營管理信義身障社區長照機構（日間照顧）", "attr": "公設民營", "type": "身障社區長照機構（日間照顧）", "town": "信義區", "address": "臺北市信義區信義路五段15號五樓", "tel": "(02)2722-9933", "fax": "（02）2760-6533", "x": 307207.90625, "y": 2769569.0, "lng": 121.56689453, "lat": 25.03314972, "is_accessi": "否", "_id": null, "_importdate": null, "addr": null }, "geometry": { "type": "Point", "coordinates": [ 121.566897772657128, 25.033149321782595 ] } },
{ "type": "Feature", "properties": { "OBJECTID": 82.0, "code": "B02040001", "name": "興隆會所", "attr": "公設民營", "type": "精神障礙者會所", "town": "文山區", "address": "臺北市文山區木柵路二段138巷33號1樓", "tel": "(02)2937-7008", "fax": null, "x": 306765.40625, "y": 2764570.0, "lng": 121.56230927, "lat": 24.9880352, "is_accessi": "是", "_id": null, "_importdate": null, "addr": null }, "geometry": { "type": "Point", "coordinates": [ 121.562307474181736, 24.988035345938936 ] } },
{ "type": "Feature", "properties": { "OBJECTID": 83.0, "code": "B02040001", "name": "興隆會所", "attr": "公設民營", "type": "精神障礙者會所", "town": "文山區", "address": "臺北市文山區木柵路二段138巷33號1樓", "tel": "(02)2937-7008", "fax": null, "x": 306765.40625, "y": 2764570.0, "lng": 121.56230927, "lat": 24.9880352, "is_accessi": "是", "_id": null, "_importdate": null, "addr": null }, "geometry": { "type": "Point", "coordinates": [ 121.562307474181736, 24.988035345938936 ] } },
{ "type": "Feature", "properties": { "OBJECTID": 84.0, "code": "B02040002", "name": "真福之家_方案委託", "attr": "其他", "type": "精神障礙者會所", "town": "松山區", "address": "臺北市松山區敦化北路145巷10之2號1樓", "tel": "(02)8712-7717", "fax": null, "x": 305521.1875, "y": 2771860.0, "lng": 121.55027771, "lat": 25.05389595, "is_accessi": "是", "_id": null, "_importdate": null, "addr": null }, "geometry": { "type": "Point", "coordinates": [ 121.550276448279817, 25.053895081707065 ] } },
{ "type": "Feature", "properties": { "OBJECTID": 85.0, "code": "B02040003", "name": "向陽會所", "attr": "公設民營", "type": "精神障礙者會所", "town": "萬華區", "address": "臺北市萬華區青年路152巷20號、22號1樓", "tel": "(02)2305-1912", "fax": null, "x": 300648.5, "y": 2768192.0, "lng": 121.50184631, "lat": 25.02095222, "is_accessi": "是", "_id": null, "_importdate": null, "addr": null }, "geometry": { "type": "Point", "coordinates": [ 121.501849380328977, 25.020951484094347 ] } },
{ "type": "Feature", "properties": { "OBJECTID": 86.0, "code": "B03010001", "name": "臺北市士林、北投區身心障礙者資源中心", "attr": "公設民營", "type": "身心障礙者資源中心", "town": "北投區", "address": "臺北市北投區奇岩里0鄰三合街一段119號7樓", "tel": "(02)2895-5737", "fax": "(02)2895-5879", "x": 300814.8125, "y": 2779889.75, "lng": 121.50392914, "lat": 25.12655258, "is_accessi": "是", "_id": null, "_importdate": null, "addr": null }, "geometry": { "type": "Point", "coordinates": [ 121.50392913399692, 25.126554786088494 ] } },
{ "type": "Feature", "properties": { "OBJECTID": 87.0, "code": "B03010001", "name": "臺北市士林、北投區身心障礙者資源中心", "attr": "公設民營", "type": "身心障礙者資源中心", "town": "北投區", "address": "臺北市北投區奇岩里0鄰三合街一段119號7樓", "tel": "(02)2895-5737", "fax": "(02)2895-5879", "x": 300814.8125, "y": 2779889.75, "lng": 121.50392914, "lat": 25.12655258, "is_accessi": "是", "_id": null, "_importdate": null, "addr": null }, "geometry": { "type": "Point", "coordinates": [ 121.50392913399692, 25.126554786088494 ] } },
{ "type": "Feature", "properties": { "OBJECTID": 88.0, "code": "B03010002", "name": "臺北市大同、中山區身心障礙者資源中心", "attr": "公設民營", "type": "身心障礙者資源中心", "town": "中山區", "address": "臺北市中山區長安西路5巷2號", "tel": "(02)2522-2486", "fax": "(02)2522-2485", "x": 302545.8125, "y": 2771473.0, "lng": 121.52077484, "lat": 25.05050659, "is_accessi": "是", "_id": null, "_importdate": null, "addr": null }, "geometry": { "type": "Point", "coordinates": [ 121.520773172530255, 25.050507591541891 ] } },
{ "type": "Feature", "properties": { "OBJECTID": 89.0, "code": "B03010003", "name": "臺北市中正、萬華區身心障礙者資源中心", "attr": "公設民營", "type": "身心障礙者資源中心", "town": "中正區", "address": "臺北市中正區南門里延平南路207號3樓", "tel": "(02)2306-9661", "fax": "(02)2311-2998", "x": 301230.46875, "y": 2769516.0, "lng": 121.50766754, "lat": 25.0328846, "is_accessi": "是", "_id": null, "_importdate": null, "addr": null }, "geometry": { "type": "Point", "coordinates": [ 121.507665108743964, 25.032884970964442 ] } },
{ "type": "Feature", "properties": { "OBJECTID": 90.0, "code": "B03010003", "name": "臺北市中正、萬華區身心障礙者資源中心", "attr": "公設民營", "type": "身心障礙者資源中心", "town": "中正區", "address": "臺北市中正區南門里延平南路207號3樓", "tel": "(02)2306-9661", "fax": "(02)2311-2998", "x": 301230.46875, "y": 2769516.0, "lng": 121.50766754, "lat": 25.03288651, "is_accessi": "是", "_id": null, "_importdate": null, "addr": null }, "geometry": { "type": "Point", "coordinates": [ 121.507665108743964, 25.032884970964442 ] } },
{ "type": "Feature", "properties": { "OBJECTID": 91.0, "code": "B03010004", "name": "大安、文山區身心障礙者資源中心", "attr": "其他", "type": "身心障礙者資源中心", "town": "文山區", "address": "臺北市文山區辛亥路五段94號一樓", "tel": "(02)2931-4933", "fax": "(02)8663-9591", "x": 305831.6875, "y": 2765716.0, "lng": 121.55310822, "lat": 24.9984169, "is_accessi": "是", "_id": null, "_importdate": null, "addr": null }, "geometry": { "type": "Point", "coordinates": [ 121.553105060262368, 24.998416057839645 ] } },
{ "type": "Feature", "properties": { "OBJECTID": 92.0, "code": "B03010005", "name": "臺北市內湖、松山區身心障礙者資源中心", "attr": "公設民營", "type": "身心障礙者資源中心", "town": "內湖區", "address": "臺北市內湖區瑞光路162號2樓之3", "tel": "(02)2657-0073", "fax": "(02)2763-8227", "x": 308436.28125, "y": 2774036.5, "lng": 121.57926178, "lat": 25.07343483, "is_accessi": "是", "_id": null, "_importdate": null, "addr": null }, "geometry": { "type": "Point", "coordinates": [ 121.579259582594773, 25.073438847015272 ] } },
{ "type": "Feature", "properties": { "OBJECTID": 93.0, "code": "B03010005", "name": "臺北市內湖、松山區身心障礙者資源中心", "attr": "公設民營", "type": "身心障礙者資源中心", "town": "內湖區", "address": "臺北市內湖區瑞光路162號2樓之3", "tel": "(02)2657-0073", "fax": "(02)2763-8227", "x": 308436.28125, "y": 2774036.5, "lng": 121.57926178, "lat": 25.07343483, "is_accessi": "是", "_id": null, "_importdate": null, "addr": null }, "geometry": { "type": "Point", "coordinates": [ 121.579259582594773, 25.073438847015272 ] } },
{ "type": "Feature", "properties": { "OBJECTID": 94.0, "code": "B03010006", "name": "臺北市信義、南港區身心障礙者資源中心", "attr": "其他", "type": "身心障礙者資源中心", "town": "信義區", "address": "臺北市信義區廣居里3鄰忠孝東路五段242號7樓", "tel": "(02)8780-8910", "fax": "(02)8780-8951", "x": 307752.5, "y": 2770419.0, "lng": 121.57232666, "lat": 25.040802, "is_accessi": "是", "_id": null, "_importdate": null, "addr": null }, "geometry": { "type": "Point", "coordinates": [ 121.57232984486059, 25.040802341584069 ] } },
{ "type": "Feature", "properties": { "OBJECTID": 95.0, "code": "B03020001", "name": "臺北市私立活泉之家", "attr": "私立", "type": "福利服務中心", "town": "文山區", "address": "臺北市文山區萬美街一段55號三樓", "tel": "(02)2230-7715#240", "fax": "(02)2230-3127", "x": 307345.3125, "y": 2766157.0, "lng": 121.56811523, "lat": 25.00234032, "is_accessi": "是", "_id": null, "_importdate": null, "addr": null }, "geometry": { "type": "Point", "coordinates": [ 121.568117498257919, 25.002340875225809 ] } },
{ "type": "Feature", "properties": { "OBJECTID": 96.0, "code": "B03020002", "name": "臺北市身心障礙者自立生活支持服務中心", "attr": "公設民營", "type": "福利服務中心", "town": "大同區", "address": "臺北市大同區重慶北路三段347號3樓之2", "tel": "(02)2592-6660", "fax": "(02)2523-6660", "x": 301859.59375, "y": 2774159.5, "lng": 121.51407623, "lat": 25.07478523, "is_accessi": "是", "_id": null, "_importdate": null, "addr": null }, "geometry": { "type": "Point", "coordinates": [ 121.514073784411963, 25.074789357312728 ] } },
{ "type": "Feature", "properties": { "OBJECTID": 97.0, "code": "B03020002", "name": "臺北市身心障礙者自立生活支持服務中心", "attr": "公設民營", "type": "福利服務中心", "town": "大同區", "address": "臺北市大同區重慶北路三段347號3樓之2", "tel": "(02)2592-6660", "fax": "(02)2523-6660", "x": 301859.59375, "y": 2774159.5, "lng": 121.51407623, "lat": 25.07478523, "is_accessi": "是", "_id": null, "_importdate": null, "addr": null }, "geometry": { "type": "Point", "coordinates": [ 121.514073784411963, 25.074789357312728 ] } },
{ "type": "Feature", "properties": { "OBJECTID": 98.0, "code": "B03020003", "name": "臺北市私立八德服務中心", "attr": "私立", "type": "福利服務中心", "town": "松山區", "address": "臺北市松山區八德路三段155巷4弄35號", "tel": "(02)2570-2560", "fax": "(02)2579-0378", "x": 306060.8125, "y": 2771312.0, "lng": 121.55560303, "lat": 25.04892731, "is_accessi": "是", "_id": null, "_importdate": null, "addr": null }, "geometry": { "type": "Point", "coordinates": [ 121.555601982085591, 25.048927886426906 ] } },
{ "type": "Feature", "properties": { "OBJECTID": 99.0, "code": "B03030001", "name": "臺北市合宜輔具中心(財團法人第一社會福利基金會承辦)", "attr": "公設民營", "type": "輔具服務中心", "town": "中山區", "address": "臺北市中山區玉門街1號", "tel": "(02)7713-7760", "fax": "(02)2597-7957", "x": 302518.8125, "y": 2773859.0, "lng": 121.52059937, "lat": 25.07204819, "is_accessi": "是", "_id": null, "_importdate": null, "addr": null }, "geometry": { "type": "Point", "coordinates": [ 121.520596600907965, 25.072049179973007 ] } },
{ "type": "Feature", "properties": { "OBJECTID": 100.0, "code": "B03030002", "name": "臺北市西區輔具中心 (財團法人伊甸社會福利基金會承辦)", "attr": "公設民營", "type": "輔具服務中心", "town": "中山區", "address": "臺北市中山區長安西路2號5巷2號2樓", "tel": "(02)2523-7902", "fax": "(02)2523-8411", "x": 302545.75, "y": 2771472.75, "lng": 121.52077484, "lat": 25.05050468, "is_accessi": "是", "_id": null, "_importdate": null, "addr": null }, "geometry": { "type": "Point", "coordinates": [ 121.520773172530255, 25.050507591541891 ] } },
{ "type": "Feature", "properties": { "OBJECTID": 101.0, "code": "B03030002", "name": "臺北市西區輔具中心 (財團法人伊甸社會福利基金會承辦)", "attr": "公設民營", "type": "輔具服務中心", "town": "中山區", "address": "臺北市中山區長安西路2號5巷2號2樓", "tel": "(02)2523-7902", "fax": "(02)2523-8411", "x": 302502.8125, "y": 2771397.5, "lng": 121.5203476, "lat": 25.04982758, "is_accessi": "是", "_id": null, "_importdate": null, "addr": null }, "geometry": { "type": "Point", "coordinates": [ 121.520344161904973, 25.049831988890624 ] } },
{ "type": "Feature", "properties": { "OBJECTID": 102.0, "code": "B03030003", "name": "臺北市南區輔具中心 (財團法人第一社會福利基金會承辦)", "attr": "其他", "type": "輔具服務中心", "town": "信義區", "address": "臺北市信義區信義路五段150巷310號", "tel": "(02)2720-7364", "fax": "(02)2723-9464", "x": 307473.40625, "y": 2768894.0, "lng": 121.56950378000001, "lat": 25.0270462, "is_accessi": "是", "_id": null, "_importdate": null, "addr": null }, "geometry": { "type": "Point", "coordinates": [ 121.569500495149512, 25.027045431834978 ] } },
{ "type": "Feature", "properties": { "OBJECTID": 103.0, "code": "B04010001", "name": "財團法人中華民國自閉症基金會", "attr": "私立", "type": "身心障礙者社區日間活動據點", "town": "士林區", "address": "臺北市士林區中山北路五段841號4樓之2", "tel": "(02)2832-3020#19", "fax": null, "x": 302981.09375, "y": 2777198.0, "lng": 121.5253067, "lat": 25.10217667, "is_accessi": "否", "_id": null, "_importdate": null, "addr": null }, "geometry": { "type": "Point", "coordinates": [ 121.525307696399082, 25.102177183262626 ] } },
{ "type": "Feature", "properties": { "OBJECTID": 104.0, "code": "B04010002", "name": "中華視障人福利協會", "attr": "私立", "type": "身心障礙者社區日間活動據點", "town": "中山區", "address": "臺北市中山區撫順街6號6樓", "tel": "(02)2599-1234", "fax": null, "x": 302437.09375, "y": 2772899.0, "lng": 121.5197525, "lat": 25.06338501, "is_accessi": "否", "_id": null, "_importdate": null, "addr": null }, "geometry": { "type": "Point", "coordinates": [ 121.519750195545413, 25.063385207547888 ] } },
{ "type": "Feature", "properties": { "OBJECTID": 105.0, "code": "B04010003", "name": "財團法人心路社會福利基金會", "attr": "私立", "type": "身心障礙者社區日間活動據點", "town": "文山區", "address": "臺北市文山區萬和街8號1樓(臺北社區生活支持中心)", "tel": "(02)2239-5319#312", "fax": null, "x": 307305.90625, "y": 2766120.0, "lng": 121.56772614, "lat": 25.00200844, "is_accessi": "否", "_id": null, "_importdate": null, "addr": null }, "geometry": { "type": "Point", "coordinates": [ 121.567725644110524, 25.002008331859646 ] } },
{ "type": "Feature", "properties": { "OBJECTID": 106.0, "code": "B04010004", "name": "中華民國腦性麻痺協會", "attr": "私立", "type": "身心障礙者社區日間活動據點", "town": "北投區", "address": "臺北市北投區大業路166號5樓", "tel": "(02)2892-6222#206", "fax": null, "x": 300325.3125, "y": 2779748.0, "lng": 121.49906921, "lat": 25.12528992, "is_accessi": "否", "_id": null, "_importdate": null, "addr": null }, "geometry": { "type": "Point", "coordinates": [ 121.499069712315304, 25.125289251110765 ] } },
{ "type": "Feature", "properties": { "OBJECTID": 107.0, "code": "B04010005", "name": "社團法人台北生命勵樂活輔健會", "attr": "私立", "type": "身心障礙者社區日間活動據點", "town": "松山區", "address": "臺北市松山區塔悠路臺北市觀山自行車租借站（塔悠路與民權東路交叉口，民權高架橋下，基六號疏散門進入，左轉直走往大直橋方向，約250公尺之高速公路橋下方彩色貨櫃屋）", "tel": "0928-896003", "fax": null, "x": 307334.5, "y": 2772757.0, "lng": 121.56828308, "lat": 25.06192589, "is_accessi": "否", "_id": null, "_importdate": null, "addr": null }, "geometry": { "type": "Point", "coordinates": [ 121.568284914482547, 25.061925409585111 ] } },
{ "type": "Feature", "properties": { "OBJECTID": 109.0, "code": "B04010007", "name": "財團法人伊甸社會福利基金會(附設台北市私立恩望身心障礙者人力資源服務中心)", "attr": "私立", "type": "身心障礙者社區日間活動據點", "town": "南港區", "address": "臺北市南港區忠孝東路六段85號3樓", "tel": "(02)2570-2560#17", "fax": null, "x": 308993.40625, "y": 2771241.0, "lng": 121.58466339, "lat": 25.04817581, "is_accessi": "否", "_id": null, "_importdate": null, "addr": null }, "geometry": { "type": "Point", "coordinates": [ 121.584661907407693, 25.048175364353806 ] } },
{ "type": "Feature", "properties": { "OBJECTID": 110.0, "code": "B04010008", "name": "社團法人臺北市視障者家長協會", "attr": "私立", "type": "身心障礙者社區日間活動據點", "town": "松山區", "address": "臺北市松山區敦化北路155巷76號4樓", "tel": "(02)2717-7722#23", "fax": null, "x": 305642.09375, "y": 2771908.0, "lng": 121.55147552, "lat": 25.0543232, "is_accessi": "否", "_id": null, "_importdate": null, "addr": null }, "geometry": { "type": "Point", "coordinates": [ 121.551476596191392, 25.054323976692995 ] } },
{ "type": "Feature", "properties": { "OBJECTID": 112.0, "code": "B06010001", "name": "福志公園", "attr": "公立", "type": "共融式遊戲場", "town": "士林區", "address": "臺北市士林區福林路251巷4弄", "tel": "(02)2281-2512", "fax": null, "x": 303925.90625, "y": 2776791.5, "lng": 121.53466034, "lat": 25.0984745, "is_accessi": "否", "_id": null, "_importdate": null, "addr": null }, "geometry": { "type": "Point", "coordinates": [ 121.534659135955692, 25.098478397119319 ] } },
{ "type": "Feature", "properties": { "OBJECTID": 113.0, "code": "B06010001", "name": "福志公園", "attr": "公立", "type": "共融式遊戲場", "town": "士林區", "address": "臺北市士林區福林路251巷4弄", "tel": "(02)2281-2512", "fax": null, "x": 303925.90625, "y": 2776791.5, "lng": 121.53466034, "lat": 25.0984726, "is_accessi": "否", "_id": null, "_importdate": null, "addr": null }, "geometry": { "type": "Point", "coordinates": [ 121.534659135955692, 25.098478397119319 ] } },
{ "type": "Feature", "properties": { "OBJECTID": 114.0, "code": "B06010002", "name": "士林4號廣場", "attr": "公立", "type": "共融式遊戲場", "town": "士林區", "address": "臺北市士林區福林路與雨農路交叉口", "tel": "(02)2381-5132#317", "fax": null, "x": 303482.6875, "y": 2776359.25, "lng": 121.53025055000001, "lat": 25.09458733, "is_accessi": "是", "_id": null, "_importdate": null, "addr": null }, "geometry": { "type": "Point", "coordinates": [ 121.530248238599, 25.094585099185259 ] } },
{ "type": "Feature", "properties": { "OBJECTID": 115.0, "code": "B06010002", "name": "士林4號廣場", "attr": "公立", "type": "共融式遊戲場", "town": "士林區", "address": "臺北市士林區福林路與雨農路交叉口", "tel": "(02)2381-5132#317", "fax": null, "x": 303482.6875, "y": 2776359.25, "lng": 121.53025055000001, "lat": 25.09458733, "is_accessi": "是", "_id": null, "_importdate": null, "addr": null }, "geometry": { "type": "Point", "coordinates": [ 121.530248238599, 25.094585099185259 ] } },
{ "type": "Feature", "properties": { "OBJECTID": 116.0, "code": "B06010003", "name": "兒童新樂園(機械式)", "attr": "公立", "type": "共融式遊戲場", "town": "士林區", "address": "臺北市士林區承德路五段55號", "tel": "(02)2833-3823#504", "fax": null, "x": 301859.90625, "y": 2776602.0, "lng": 121.51416779, "lat": 25.09683609, "is_accessi": "是", "_id": null, "_importdate": null, "addr": null }, "geometry": { "type": "Point", "coordinates": [ 121.514168858984206, 25.096835511448685 ] } },
{ "type": "Feature", "properties": { "OBJECTID": 117.0, "code": "B06010004", "name": "兒童新樂園(非機械式)", "attr": "公立", "type": "共融式遊戲場", "town": "士林區", "address": "臺北市士林區承德路五段55號", "tel": "(02)2833-3823#504", "fax": null, "x": 301859.90625, "y": 2776602.0, "lng": 121.51416779, "lat": 25.09683609, "is_accessi": "是", "_id": null, "_importdate": null, "addr": null }, "geometry": { "type": "Point", "coordinates": [ 121.514168858984206, 25.096835511448685 ] } },
{ "type": "Feature", "properties": { "OBJECTID": 118.0, "code": "B06010005", "name": "樹德公園", "attr": "公立", "type": "共融式遊戲場", "town": "大同區", "address": "臺北市大同區大龍街129號", "tel": "(02)2585-0192", "fax": null, "x": 302068.5625, "y": 2773314.75, "lng": 121.51611328, "lat": 25.06715202, "is_accessi": "是", "_id": null, "_importdate": null, "addr": null }, "geometry": { "type": "Point", "coordinates": [ 121.516113520871642, 25.067153568403484 ] } },
{ "type": "Feature", "properties": { "OBJECTID": 119.0, "code": "B06010005", "name": "樹德公園", "attr": "公立", "type": "共融式遊戲場", "town": "大同區", "address": "臺北市大同區大龍街129號", "tel": "(02)2585-0192", "fax": null, "x": 302068.5625, "y": 2773314.75, "lng": 121.51611328, "lat": 25.06715202, "is_accessi": "是", "_id": null, "_importdate": null, "addr": null }, "geometry": { "type": "Point", "coordinates": [ 121.516113520871642, 25.067153568403484 ] } },
{ "type": "Feature", "properties": { "OBJECTID": 120.0, "code": "B06010006", "name": "景化公園", "attr": "公立", "type": "共融式遊戲場", "town": "大同區", "address": "臺北市大同區伊寧街9巷(景化街巷弄中)", "tel": "(02)2585-0192", "fax": null, "x": 301766.3125, "y": 2773090.0, "lng": 121.5131073, "lat": 25.06513214, "is_accessi": "是", "_id": null, "_importdate": null, "addr": null }, "geometry": { "type": "Point", "coordinates": [ 121.513108701190731, 25.065132667917347 ] } },
{ "type": "Feature", "properties": { "OBJECTID": 121.0, "code": "B06010007", "name": "朝陽公園", "attr": "公立", "type": "共融式遊戲場", "town": "大同區", "address": "臺北市大同區重慶北路二段64巷口", "tel": "(02)2585-0192", "fax": null, "x": 301756.59375, "y": 2772042.0, "lng": 121.51296997, "lat": 25.05567169, "is_accessi": "是", "_id": null, "_importdate": null, "addr": null }, "geometry": { "type": "Point", "coordinates": [ 121.512973164322744, 25.055671712866484 ] } },
{ "type": "Feature", "properties": { "OBJECTID": 122.0, "code": "B06010008", "name": "建成公園", "attr": "公立", "type": "共融式遊戲場", "town": "大同區", "address": "臺北市大同區承德路二段臺北市大同區承德路二段35號旁", "tel": "(02)2785-3819", "fax": null, "x": 302308.125, "y": 2771946.75, "lng": 121.51843262, "lat": 25.0547924, "is_accessi": "是", "_id": null, "_importdate": null, "addr": null }, "geometry": { "type": "Point", "coordinates": [ 121.518435441007796, 25.054795078944185 ] } },
{ "type": "Feature", "properties": { "OBJECTID": 123.0, "code": "B06010008", "name": "建成公園", "attr": "公立", "type": "共融式遊戲場", "town": "大同區", "address": "臺北市大同區承德路二段臺北市大同區承德路二段35號旁", "tel": "(02)2785-3819", "fax": null, "x": 302308.125, "y": 2771946.75, "lng": 121.51843262, "lat": 25.05479431, "is_accessi": "是", "_id": null, "_importdate": null, "addr": null }, "geometry": { "type": "Point", "coordinates": [ 121.518435441007796, 25.054795078944185 ] } },
{ "type": "Feature", "properties": { "OBJECTID": 124.0, "code": "B06010009", "name": "大安國小", "attr": "公立", "type": "共融式遊戲場", "town": "大安區", "address": "臺北市大安區臥龍街129號", "tel": "(02)2732-2332#831", "fax": null, "x": 305559.8125, "y": 2767977.0, "lng": 121.55049896, "lat": 25.01883888, "is_accessi": "是", "_id": null, "_importdate": null, "addr": null }, "geometry": { "type": "Point", "coordinates": [ 121.55050252158027, 25.018838251102785 ] } },
{ "type": "Feature", "properties": { "OBJECTID": 125.0, "code": "B06010010", "name": "和平實驗小學", "attr": "公立", "type": "共融式遊戲場", "town": "大安區", "address": "臺北市大安區敦南街76巷28號", "tel": "(02)2733-5900#1108", "fax": null, "x": 305172.0, "y": 2768184.5, "lng": 121.54666901, "lat": 25.02072525, "is_accessi": "是", "_id": null, "_importdate": null, "addr": null }, "geometry": { "type": "Point", "coordinates": [ 121.546668542121637, 25.020730240810384 ] } },
{ "type": "Feature", "properties": { "OBJECTID": 126.0, "code": "B06010010", "name": "和平實驗小學", "attr": "公立", "type": "共融式遊戲場", "town": "大安區", "address": "臺北市大安區敦南街76巷28號", "tel": "(02)2733-5900#1108", "fax": null, "x": 305172.0, "y": 2768184.5, "lng": 121.54666901, "lat": 25.02072525, "is_accessi": "是", "_id": null, "_importdate": null, "addr": null }, "geometry": { "type": "Point", "coordinates": [ 121.546668542121637, 25.020730240810384 ] } },
{ "type": "Feature", "properties": { "OBJECTID": 127.0, "code": "B06010011", "name": "建安國小", "attr": "公立", "type": "共融式遊戲場", "town": "大安區", "address": "臺北市大安區大安路二段99號", "tel": "(02)2707-7119#140", "fax": null, "x": 305115.8125, "y": 2769144.0, "lng": 121.54615021, "lat": 25.02939034, "is_accessi": "是", "_id": null, "_importdate": null, "addr": null }, "geometry": { "type": "Point", "coordinates": [ 121.546150022459884, 25.029390082045467 ] } },
{ "type": "Feature", "properties": { "OBJECTID": 128.0, "code": "B06010012", "name": "古亭國小", "attr": "公立", "type": "共融式遊戲場", "town": "大安區", "address": "臺北市大安區羅斯福路三段201號", "tel": "2363-9795轉831", "fax": null, "x": 303336.90625, "y": 2768171.0, "lng": 121.52848816, "lat": 25.02066994, "is_accessi": "是", "_id": null, "_importdate": null, "addr": null }, "geometry": { "type": "Point", "coordinates": [ 121.528485640455415, 25.020669594722396 ] } },
{ "type": "Feature", "properties": { "OBJECTID": 129.0, "code": "B06010013", "name": "明水公園", "attr": "公立", "type": "共融式遊戲場", "town": "中山區", "address": "臺北市中山區北安路538巷1弄", "tel": "(02)2585-0192", "fax": null, "x": 305307.1875, "y": 2774749.0, "lng": 121.54827118, "lat": 25.07998466, "is_accessi": "是", "_id": null, "_importdate": null, "addr": null }, "geometry": { "type": "Point", "coordinates": [ 121.548271633344172, 25.079984487747659 ] } },
{ "type": "Feature", "properties": { "OBJECTID": 130.0, "code": "B06010014", "name": "永盛公園", "attr": "公立", "type": "共融式遊戲場", "town": "中山區", "address": "臺北市中山區中山北路二段93巷26,40號間", "tel": "(02)2585-0192", "fax": null, "x": 302897.40625, "y": 2772437.0, "lng": 121.52429199, "lat": 25.05919838, "is_accessi": "是", "_id": null, "_importdate": null, "addr": null }, "geometry": { "type": "Point", "coordinates": [ 121.52429473363793, 25.059198264987781 ] } },
{ "type": "Feature", "properties": { "OBJECTID": 131.0, "code": "B06010015", "name": "大佳河濱公園", "attr": "公立", "type": "共融式遊戲場", "town": "中山區", "address": "臺北市中山區濱江街　", "tel": "(02)2712-6390", "fax": null, "x": 303504.3125, "y": 2773830.0, "lng": 121.53036499, "lat": 25.07175255, "is_accessi": "是", "_id": null, "_importdate": null, "addr": null }, "geometry": { "type": "Point", "coordinates": [ 121.530363989716818, 25.071752792036968 ] } },
{ "type": "Feature", "properties": { "OBJECTID": 132.0, "code": "B06010016", "name": "中安公園", "attr": "公立", "type": "共融式遊戲場", "town": "中山區", "address": "臺北市中山區中山北路二段65巷2弄內", "tel": "(02)2585-0192", "fax": null, "x": 302861.90625, "y": 2772167.0, "lng": 121.52393341, "lat": 25.0567627, "is_accessi": "是", "_id": null, "_importdate": null, "addr": null }, "geometry": { "type": "Point", "coordinates": [ 121.523932521135876, 25.056761964823039 ] } },
{ "type": "Feature", "properties": { "OBJECTID": 133.0, "code": "B06010017", "name": "花博公園美術園區", "attr": "公立", "type": "共融式遊戲場", "town": "中山區", "address": "臺北市中山區民族東路以北中山北路以東(原民族公園)", "tel": "(02)2585-0192", "fax": null, "x": 302798.96875, "y": 2773444.75, "lng": 121.52336121, "lat": 25.06830025, "is_accessi": "是", "_id": null, "_importdate": null, "addr": null }, "geometry": { "type": "Point", "coordinates": [ 121.523358129923253, 25.068301855351336 ] } },
{ "type": "Feature", "properties": { "OBJECTID": 134.0, "code": "B06010017", "name": "花博公園美術園區", "attr": "公立", "type": "共融式遊戲場", "town": "中山區", "address": "臺北市中山區民族東路以北中山北路以東(原民族公園)", "tel": "(02)2585-0192", "fax": null, "x": 302798.96875, "y": 2773444.75, "lng": 121.52336121, "lat": 25.06829834, "is_accessi": "是", "_id": null, "_importdate": null, "addr": null }, "geometry": { "type": "Point", "coordinates": [ 121.523358129923253, 25.068301855351336 ] } },
{ "type": "Feature", "properties": { "OBJECTID": 135.0, "code": "B06010018", "name": "榮星公園", "attr": "公立", "type": "共融式遊戲場", "town": "中山區", "address": "臺北市中山區民權東路三段1號", "tel": "(02)2585-0192", "fax": null, "x": 304489.8125, "y": 2772768.0, "lng": 121.54009247, "lat": 25.06212997, "is_accessi": "是", "_id": null, "_importdate": null, "addr": null }, "geometry": { "type": "Point", "coordinates": [ 121.540090424861518, 25.062129942879452 ] } },
{ "type": "Feature", "properties": { "OBJECTID": 136.0, "code": "B06010019", "name": "石潭公園", "attr": "公立", "type": "共融式遊戲場", "town": "內湖區", "address": "臺北市內湖區成功路二段東側", "tel": "(02)2658-6601", "fax": null, "x": 309654.40625, "y": 2772577.0, "lng": 121.59127045, "lat": 25.06021118, "is_accessi": "是", "_id": null, "_importdate": null, "addr": null }, "geometry": { "type": "Point", "coordinates": [ 121.591270424178987, 25.060210624432958 ] } },
{ "type": "Feature", "properties": { "OBJECTID": 137.0, "code": "B06010021", "name": "大港墘公園", "attr": "公立", "type": "共融式遊戲場", "town": "內湖區", "address": "臺北市內湖區瑞光路393巷旁", "tel": "(02)2658-6601", "fax": null, "x": 307798.8125, "y": 2774617.0, "lng": 121.57296753, "lat": 25.07869911, "is_accessi": "是", "_id": null, "_importdate": null, "addr": null }, "geometry": { "type": "Point", "coordinates": [ 121.572964875305317, 25.07869951655525 ] } },
{ "type": "Feature", "properties": { "OBJECTID": 138.0, "code": "B06010022", "name": "碧湖公園", "attr": "公立", "type": "共融式遊戲場", "town": "內湖區", "address": "臺北市內湖區內湖路二段175號，國立臺灣戲曲學院旁", "tel": "(02)2861-6361", "fax": null, "x": 309091.84375, "y": 2774896.0, "lng": 121.58579254, "lat": 25.08116722, "is_accessi": "是", "_id": null, "_importdate": null, "addr": null }, "geometry": { "type": "Point", "coordinates": [ 121.585793967475681, 25.081168242915712 ] } },
{ "type": "Feature", "properties": { "OBJECTID": 139.0, "code": "B06010022", "name": "碧湖公園", "attr": "公立", "type": "共融式遊戲場", "town": "內湖區", "address": "臺北市內湖區內湖路二段175號，國立臺灣戲曲學院旁", "tel": "(02)2861-6361", "fax": null, "x": 309091.84375, "y": 2774896.0, "lng": 121.58579254, "lat": 25.08116913, "is_accessi": "是", "_id": null, "_importdate": null, "addr": null }, "geometry": { "type": "Point", "coordinates": [ 121.585793967475681, 25.081168242915712 ] } },
{ "type": "Feature", "properties": { "OBJECTID": 140.0, "code": "B06010023", "name": "潭美國小", "attr": "公立", "type": "共融式遊戲場", "town": "內湖區", "address": "臺北市內湖區新明路22號", "tel": "02-27917334分機231", "fax": null, "x": 309401.5, "y": 2772456.0, "lng": 121.58876038, "lat": 25.05912781, "is_accessi": "是", "_id": null, "_importdate": null, "addr": null }, "geometry": { "type": "Point", "coordinates": [ 121.588758665905672, 25.059128215821445 ] } },
{ "type": "Feature", "properties": { "OBJECTID": 141.0, "code": "B06010024", "name": "萬芳4號公園", "attr": "公立", "type": "共融式遊戲場", "town": "文山區", "address": "臺北市文山區萬和街1號對面", "tel": "(02)2230-0340", "fax": null, "x": 307290.8125, "y": 2766043.0, "lng": 121.56757355000001, "lat": 25.00131416, "is_accessi": "是", "_id": null, "_importdate": null, "addr": null }, "geometry": { "type": "Point", "coordinates": [ 121.567572861474304, 25.001313751653978 ] } },
{ "type": "Feature", "properties": { "OBJECTID": 142.0, "code": "B06010025", "name": "興隆公園", "attr": "公立", "type": "共融式遊戲場", "town": "文山區", "address": "臺北市文山區興隆路二段154巷與仙岩路交口", "tel": "(02)2230-0340", "fax": null, "x": 305686.375, "y": 2766003.5, "lng": 121.55167389, "lat": 25.00101662, "is_accessi": "是", "_id": null, "_importdate": null, "addr": null }, "geometry": { "type": "Point", "coordinates": [ 121.551677286604786, 25.001021455642103 ] } },
{ "type": "Feature", "properties": { "OBJECTID": 143.0, "code": "B06010025", "name": "興隆公園", "attr": "公立", "type": "共融式遊戲場", "town": "文山區", "address": "臺北市文山區興隆路二段154巷與仙岩路交口", "tel": "(02)2230-0340", "fax": null, "x": 305686.375, "y": 2766003.5, "lng": 121.55167389, "lat": 25.00101662, "is_accessi": "是", "_id": null, "_importdate": null, "addr": null }, "geometry": { "type": "Point", "coordinates": [ 121.551677286604786, 25.001021455642103 ] } },
{ "type": "Feature", "properties": { "OBJECTID": 144.0, "code": "B06010026", "name": "景華公園", "attr": "公立", "type": "共融式遊戲場", "town": "文山區", "address": "臺北市文山區景興路與景華街交口", "tel": "(02)2230-0340", "fax": null, "x": 305001.875, "y": 2765717.25, "lng": 121.54488373, "lat": 24.99845695, "is_accessi": "是", "_id": null, "_importdate": null, "addr": null }, "geometry": { "type": "Point", "coordinates": [ 121.544884858077552, 24.998455420911505 ] } },
{ "type": "Feature", "properties": { "OBJECTID": 145.0, "code": "B06010026", "name": "景華公園", "attr": "公立", "type": "共融式遊戲場", "town": "文山區", "address": "臺北市文山區景興路與景華街交口", "tel": "(02)2230-0340", "fax": null, "x": 305001.875, "y": 2765717.25, "lng": 121.54488373, "lat": 24.99845695, "is_accessi": "是", "_id": null, "_importdate": null, "addr": null }, "geometry": { "type": "Point", "coordinates": [ 121.544884858077552, 24.998455420911505 ] } },
{ "type": "Feature", "properties": { "OBJECTID": 146.0, "code": "B06010027", "name": "道南河濱公園", "attr": "公立", "type": "共融式遊戲場", "town": "文山區", "address": "臺北市文山區恆光街景美恆光橋下游右側", "tel": "(02)2720-8889#8185", "fax": null, "x": 307211.09375, "y": 2764076.0, "lng": 121.5667038, "lat": 24.98355865, "is_accessi": "是", "_id": null, "_importdate": null, "addr": null }, "geometry": { "type": "Point", "coordinates": [ 121.566701881757893, 24.983558787896278 ] } },
{ "type": "Feature", "properties": { "OBJECTID": 147.0, "code": "B06010028", "name": "榮華公園", "attr": "公立", "type": "共融式遊戲場", "town": "北投區", "address": "臺北市北投區明德路150巷17-1號", "tel": "(02)2788-4255", "fax": null, "x": 302597.3125, "y": 2778139.0, "lng": 121.52153778, "lat": 25.11068535, "is_accessi": "是", "_id": null, "_importdate": null, "addr": null }, "geometry": { "type": "Point", "coordinates": [ 121.521538478171379, 25.110685844544886 ] } },
{ "type": "Feature", "properties": { "OBJECTID": 148.0, "code": "B06010029", "name": "石牌公園", "attr": "公立", "type": "共融式遊戲場", "town": "北投區", "address": "臺北市北投區石牌路一段39巷內", "tel": "(02)2883-2130", "fax": null, "x": 301419.90625, "y": 2779004.0, "lng": 121.50989532, "lat": 25.118536, "is_accessi": "是", "_id": null, "_importdate": null, "addr": null }, "geometry": { "type": "Point", "coordinates": [ 121.509896511886438, 25.118535565819496 ] } },
{ "type": "Feature", "properties": { "OBJECTID": 149.0, "code": "B06010030", "name": "立農公園", "attr": "公立", "type": "共融式遊戲場", "town": "北投區", "address": "臺北市北投區承德路七段與吉利街口", "tel": "(02)2883-2130", "fax": null, "x": 301501.90625, "y": 2778125.0, "lng": 121.51067352, "lat": 25.11059761, "is_accessi": "是", "_id": null, "_importdate": null, "addr": null }, "geometry": { "type": "Point", "coordinates": [ 121.510676651529351, 25.110597257567562 ] } },
{ "type": "Feature", "properties": { "OBJECTID": 150.0, "code": "B06010030", "name": "立農公園", "attr": "公立", "type": "共融式遊戲場", "town": "北投區", "address": "臺北市北投區承德路七段與吉利街口", "tel": "(02)2883-2130", "fax": null, "x": 301507.875, "y": 2778108.0, "lng": 121.51073456, "lat": 25.11044312, "is_accessi": "是", "_id": null, "_importdate": null, "addr": null }, "geometry": { "type": "Point", "coordinates": [ 121.510735506125286, 25.110443578571306 ] } },
{ "type": "Feature", "properties": { "OBJECTID": 151.0, "code": "B06010031", "name": "磺港公園", "attr": "公立", "type": "共融式遊戲場", "town": "北投區", "address": "臺北市北投區磺港路與大興街交叉口", "tel": "(02)2883-2130", "fax": null, "x": 300613.375, "y": 2780640.75, "lng": 121.50196075, "lat": 25.13333893, "is_accessi": "是", "_id": null, "_importdate": null, "addr": null }, "geometry": { "type": "Point", "coordinates": [ 121.501959624570148, 25.133341498570889 ] } },
{ "type": "Feature", "properties": { "OBJECTID": 152.0, "code": "B06010031", "name": "磺港公園", "attr": "公立", "type": "共融式遊戲場", "town": "北投區", "address": "臺北市北投區磺港路與大興街交叉口", "tel": "(02)2883-2130", "fax": null, "x": 300613.375, "y": 2780640.75, "lng": 121.50196075, "lat": 25.13333893, "is_accessi": "是", "_id": null, "_importdate": null, "addr": null }, "geometry": { "type": "Point", "coordinates": [ 121.501959624570148, 25.133341498570889 ] } },
{ "type": "Feature", "properties": { "OBJECTID": 153.0, "code": "B06010032", "name": "文林國小", "attr": "公立", "type": "共融式遊戲場", "town": "北投區", "address": "臺北市北投區文林北路155號", "tel": "02-28234212分機400", "fax": null, "x": 301913.3125, "y": 2777610.0, "lng": 121.51473999, "lat": 25.10593414, "is_accessi": "是", "_id": null, "_importdate": null, "addr": null }, "geometry": { "type": "Point", "coordinates": [ 121.5147363683447, 25.10593379220126 ] } },
{ "type": "Feature", "properties": { "OBJECTID": 154.0, "code": "B06010033", "name": "榮富公園", "attr": "公立", "type": "共融式遊戲場", "town": "北投區", "address": "臺北市北投區榮華三路及磺溪旁(過天母橋)", "tel": "(02)2785-3819", "fax": null, "x": 302595.3125, "y": 2778489.0, "lng": 121.52153015, "lat": 25.11384583, "is_accessi": "是", "_id": null, "_importdate": null, "addr": null }, "geometry": { "type": "Point", "coordinates": [ 121.52153205395291, 25.113845668995719 ] } },
{ "type": "Feature", "properties": { "OBJECTID": 155.0, "code": "B06010034", "name": "三民公園", "attr": "公立", "type": "共融式遊戲場", "town": "松山區", "address": "臺北市松山區三民路、撫遠街298號", "tel": "(02)2585-0192", "fax": null, "x": 306905.6875, "y": 2771798.0, "lng": 121.56399536000001, "lat": 25.05328369, "is_accessi": "是", "_id": null, "_importdate": null, "addr": null }, "geometry": { "type": "Point", "coordinates": [ 121.563995293548416, 25.053283883112666 ] } },
{ "type": "Feature", "properties": { "OBJECTID": 156.0, "code": "B06010035", "name": "眷村文化公園", "attr": "公立", "type": "共融式遊戲場", "town": "信義區", "address": "臺北市信義區莊敬路與松勤路交口,信義國小西側", "tel": "(02)2788-4255", "fax": null, "x": 306627.46875, "y": 2769476.25, "lng": 121.56114197, "lat": 25.03233337, "is_accessi": "是", "_id": null, "_importdate": null, "addr": null }, "geometry": { "type": "Point", "coordinates": [ 121.561142738223609, 25.032331553078791 ] } },
{ "type": "Feature", "properties": { "OBJECTID": 157.0, "code": "B06010035", "name": "眷村文化公園", "attr": "公立", "type": "共融式遊戲場", "town": "信義區", "address": "臺北市信義區莊敬路與松勤路交口,信義國小西側", "tel": "(02)2788-4255", "fax": null, "x": 306627.46875, "y": 2769476.25, "lng": 121.56114197, "lat": 25.03233337, "is_accessi": "是", "_id": null, "_importdate": null, "addr": null }, "geometry": { "type": "Point", "coordinates": [ 121.561142738223609, 25.032331553078791 ] } },
{ "type": "Feature", "properties": { "OBJECTID": 158.0, "code": "B06010036", "name": "象山公園", "attr": "公立", "type": "共融式遊戲場", "town": "信義區", "address": "臺北市信義區信義路五段150巷旁", "tel": "(02)2788-4255", "fax": null, "x": 307556.6875, "y": 2768736.0, "lng": 121.57032013, "lat": 25.02561569, "is_accessi": "是", "_id": null, "_importdate": null, "addr": null }, "geometry": { "type": "Point", "coordinates": [ 121.570319285096289, 25.025615858793049 ] } },
{ "type": "Feature", "properties": { "OBJECTID": 159.0, "code": "B06010037", "name": "聯成公園", "attr": "公立", "type": "共融式遊戲場", "town": "南港區", "address": "臺北市南港區忠孝東路六段250巷1弄", "tel": "(02)2788-4255", "fax": null, "x": 309434.8125, "y": 2771272.0, "lng": 121.58903503000001, "lat": 25.04843712, "is_accessi": "是", "_id": null, "_importdate": null, "addr": null }, "geometry": { "type": "Point", "coordinates": [ 121.589037616080347, 25.048437946651752 ] } },
{ "type": "Feature", "properties": { "OBJECTID": 160.0, "code": "B06010038", "name": "玉成公園", "attr": "公立", "type": "共融式遊戲場", "town": "南港區", "address": "臺北市南港區中坡南路55號", "tel": "(02)2788-4255", "fax": null, "x": 309106.3125, "y": 2770543.0, "lng": 121.58575439000001, "lat": 25.04187012, "is_accessi": "是", "_id": null, "_importdate": null, "addr": null }, "geometry": { "type": "Point", "coordinates": [ 121.585750833641484, 25.041869514386175 ] } },
{ "type": "Feature", "properties": { "OBJECTID": 161.0, "code": "B06010039", "name": "四分綠地", "attr": "公立", "type": "共融式遊戲場", "town": "南港區", "address": "臺北市南港區研究院路二段182巷58弄旁", "tel": "(02)8791-6654", "fax": null, "x": 312001.59375, "y": 2769946.0, "lng": 121.61441803, "lat": 25.0363636, "is_accessi": "是", "_id": null, "_importdate": null, "addr": null }, "geometry": { "type": "Point", "coordinates": [ 121.614415495845648, 25.036364026707293 ] } },
{ "type": "Feature", "properties": { "OBJECTID": 162.0, "code": "B06010040", "name": "中研公園", "attr": "公立", "type": "共融式遊戲場", "town": "南港區", "address": "臺北市南港區研究院路二段12巷58弄", "tel": "(02)2788-4255", "fax": null, "x": 311943.0, "y": 2771140.0, "lng": 121.6138916, "lat": 25.04714584, "is_accessi": "是", "_id": null, "_importdate": null, "addr": null }, "geometry": { "type": "Point", "coordinates": [ 121.613888475809887, 25.047145633438202 ] } },
{ "type": "Feature", "properties": { "OBJECTID": 163.0, "code": "B06010041", "name": "山水綠生態公園", "attr": "公立", "type": "共融式遊戲場", "town": "南港區", "address": "臺北市南港區南深路37號", "tel": "(02)2651-1434#125", "fax": null, "x": 312605.78125, "y": 2769961.0, "lng": 121.62039948, "lat": 25.03647423, "is_accessi": "是", "_id": null, "_importdate": null, "addr": null }, "geometry": { "type": "Point", "coordinates": [ 121.620403324943581, 25.036474568454178 ] } },
{ "type": "Feature", "properties": { "OBJECTID": 164.0, "code": "B06010041", "name": "山水綠生態公園", "attr": "公立", "type": "共融式遊戲場", "town": "南港區", "address": "臺北市南港區南深路37號", "tel": "(02)2651-1434#125", "fax": null, "x": 312605.78125, "y": 2769961.0, "lng": 121.62039948, "lat": 25.03647614, "is_accessi": "是", "_id": null, "_importdate": null, "addr": null }, "geometry": { "type": "Point", "coordinates": [ 121.620403324943581, 25.036474568454178 ] } },
{ "type": "Feature", "properties": { "OBJECTID": 165.0, "code": "B06010042", "name": "和平青草公園", "attr": "公立", "type": "共融式遊戲場", "town": "萬華區", "address": "臺北市萬華區艋舺大道與號西園路二段交叉口", "tel": "(02)2785-3819", "fax": null, "x": 300982.625, "y": 2769689.0, "lng": 121.50521851000001, "lat": 25.03445435, "is_accessi": "是", "_id": null, "_importdate": null, "addr": null }, "geometry": { "type": "Point", "coordinates": [ 121.50521503280811, 25.034455183857222 ] } },
{ "type": "Feature", "properties": { "OBJECTID": 166.0, "code": "B06010042", "name": "和平青草公園", "attr": "公立", "type": "共融式遊戲場", "town": "萬華區", "address": "臺北市萬華區艋舺大道與號西園路二段交叉口", "tel": "(02)2785-3819", "fax": null, "x": 300982.625, "y": 2769689.0, "lng": 121.50521851000001, "lat": 25.03445435, "is_accessi": "是", "_id": null, "_importdate": null, "addr": null }, "geometry": { "type": "Point", "coordinates": [ 121.50521503280811, 25.034455183857222 ] } },
{ "type": "Feature", "properties": { "OBJECTID": 168.0, "code": "B02020025", "name": "南港工坊", "attr": "公設民營", "type": "社區日間作業設施", "town": "南港區", "address": "臺北市南港區八德路四段768-1號", "tel": "(02)2788-5260", "fax": null, "x": 308518.0, "y": 2771475.0, "lng": 121.57996368000001, "lat": 25.05030632, "is_accessi": "是", "_id": null, "_importdate": null, "addr": null }, "geometry": { "type": "Point", "coordinates": [ 121.579960522877172, 25.050306351140652 ] } },
{ "type": "Feature", "properties": { "OBJECTID": 169.0, "code": "B04010010", "name": "財團法人台北市私立雙連視障關懷基金會", "attr": "私立", "type": "身心障礙者社區日間活動據點", "town": "中山區", "address": "臺北市中山區中山北路二段111號11樓", "tel": "2531-2320", "fax": null, "x": 302783.3125, "y": 2772539.0, "lng": 121.52317047, "lat": 25.06012344, "is_accessi": "否", "_id": null, "_importdate": null, "addr": null }, "geometry": { "type": "Point", "coordinates": [ 121.523167774072462, 25.060123102298164 ] } },
{ "type": "Feature", "properties": { "OBJECTID": 170.0, "code": "B04010011", "name": "財團法人喜憨兒社會福利基金會", "attr": "私立", "type": "身心障礙者社區日間活動據點", "town": "松山區", "address": "臺北市松山區民生東路五段163-1號7樓", "tel": "2748-5810#10", "fax": null, "x": 306761.0, "y": 2772437.0, "lng": 121.56258392, "lat": 25.05905724, "is_accessi": "否", "_id": null, "_importdate": null, "addr": null }, "geometry": { "type": "Point", "coordinates": [ 121.562587554864379, 25.059058135274572 ] } },
{ "type": "Feature", "properties": { "OBJECTID": 171.0, "code": "B02020026", "name": "健康工坊_B處", "attr": "公設民營", "type": "社區日間作業設施", "town": "松山區", "address": "臺北市松山區健康路399號6樓", "tel": "(02)2758-8889", "fax": null, "x": 307395.90625, "y": 2771946.0, "lng": 121.56886292, "lat": 25.05460167, "is_accessi": "是", "_id": null, "_importdate": null, "addr": null }, "geometry": { "type": "Point", "coordinates": [ 121.568859669719288, 25.054601480884557 ] } },
{ "type": "Feature", "properties": { "OBJECTID": 172.0, "code": "B06020002", "name": "委託辦理臺北市聽語障溝通服務方案", "attr": "其他", "type": "委託方案", "town": "士林區", "address": "臺北市士林區承德路四段58巷10弄6號", "tel": "02-28852120", "fax": null, "x": 302686.8125, "y": 2774963.0, "lng": 121.52230072, "lat": 25.08201027, "is_accessi": "否", "_id": null, "_importdate": null, "addr": null }, "geometry": { "type": "Point", "coordinates": [ 121.522304140869323, 25.082010145989933 ] } },
{ "type": "Feature", "properties": { "OBJECTID": 173.0, "code": "B06020003", "name": "委託辦理臺北市視障者服務", "attr": "其他", "type": "委託方案", "town": "松山區", "address": "臺北市松山區光復北路60巷19-6號B1", "tel": "(02)2577-5689", "fax": null, "x": 306202.40625, "y": 2771396.0, "lng": 121.55700684, "lat": 25.04968071, "is_accessi": "否", "_id": null, "_importdate": null, "addr": null }, "geometry": { "type": "Point", "coordinates": [ 121.55700871211836, 25.049680974272427 ] } },
{ "type": "Feature", "properties": { "OBJECTID": 174.0, "code": "B02040004", "name": "星辰會所", "attr": "公設民營", "type": "精神障礙者會所", "town": "士林區", "address": "臺北市士林區三玉里忠誠路二段53巷7號9樓", "tel": "2838-2225", "fax": null, "x": 303689.90625, "y": 2778225.0, "lng": 121.53237915, "lat": 25.11142349, "is_accessi": "是", "_id": null, "_importdate": null, "addr": null }, "geometry": { "type": "Point", "coordinates": [ 121.532375357083936, 25.111423740926853 ] } },
{ "type": "Feature", "properties": { "OBJECTID": 175.0, "code": "B02020027", "name": "萬華視障生活重建中心暨社區工坊", "attr": "公設民營", "type": "社區日間作業設施", "town": "萬華區", "address": "臺北市萬華區0鄰梧州街36號4樓", "tel": "(02)23085598", "fax": null, "x": 300201.5, "y": 2770009.0, "lng": 121.49748993, "lat": 25.03737068, "is_accessi": "是", "_id": null, "_importdate": null, "addr": null }, "geometry": { "type": "Point", "coordinates": [ 121.497486560851456, 25.037370254446962 ] } },
{ "type": "Feature", "properties": { "OBJECTID": 176.0, "code": "B02020028", "name": "委託經營管理身心障礙者社區日間作業設施-瑞光工坊", "attr": "公設民營", "type": "社區日間作業設施", "town": "內湖區", "address": "臺北市內湖區瑞光路162號2樓之2", "tel": "(02)2720-8889#8185", "fax": null, "x": 308436.28125, "y": 2774036.5, "lng": 121.57926178, "lat": 25.07343483, "is_accessi": "是", "_id": null, "_importdate": null, "addr": null }, "geometry": { "type": "Point", "coordinates": [ 121.579259582594773, 25.073438847015272 ] } },
{ "type": "Feature", "properties": { "OBJECTID": 177.0, "code": "B02020028", "name": "委託經營管理身心障礙者社區日間作業設施-瑞光工坊", "attr": "公設民營", "type": "社區日間作業設施", "town": "內湖區", "address": "臺北市內湖區瑞光路162號2樓之2", "tel": "(02)2720-8889#8185", "fax": null, "x": 308436.28125, "y": 2774036.5, "lng": 121.57926178, "lat": 25.07343483, "is_accessi": "是", "_id": null, "_importdate": null, "addr": null }, "geometry": { "type": "Point", "coordinates": [ 121.579259582594773, 25.073438847015272 ] } },
{ "type": "Feature", "properties": { "OBJECTID": 178.0, "code": "B02020029", "name": "委託經營管理身心障礙者社區日間作業設施-明倫工坊", "attr": "公設民營", "type": "社區日間作業設施", "town": "大同區", "address": "臺北市大同區承德路三段285之5號", "tel": "22789888", "fax": null, "x": 302399.40625, "y": 2773977.0, "lng": 121.51941681, "lat": 25.07311821, "is_accessi": "是", "_id": null, "_importdate": null, "addr": null }, "geometry": { "type": "Point", "coordinates": [ 121.519417571280101, 25.073118620538935 ] } },
{ "type": "Feature", "properties": { "OBJECTID": 180.0, "code": "B02030006", "name": "臺北市政府社會局委託財團法人臺北市喜樂家族社會福利基金會經營管理大龍峒身障社區長照機構（日間照顧）", "attr": "公設民營", "type": "身障社區長照機構（日間照顧）", "town": "大同區", "address": "臺北市大同區老師里0鄰重慶北路三段320號3、4樓（社福大樓）", "tel": "(02)2592-2581", "fax": null, "x": 301810.8125, "y": 2774150.0, "lng": 121.51358795, "lat": 25.07470131, "is_accessi": "是", "_id": null, "_importdate": null, "addr": null }, "geometry": { "type": "Point", "coordinates": [ 121.513589678603324, 25.074700752517149 ] } },
{ "type": "Feature", "properties": { "OBJECTID": 182.0, "code": "B06020006", "name": "委託辦理臨時及短期照顧服務財團法人台北市私立雙連視障關懷基金會", "attr": "私立", "type": "委託方案", "town": "中山區", "address": "臺北市中山區聚盛里中山北路二段111號11樓", "tel": "02-25312320", "fax": null, "x": 302783.3125, "y": 2772539.0, "lng": 121.52317047, "lat": 25.06012344, "is_accessi": "否", "_id": null, "_importdate": null, "addr": null }, "geometry": { "type": "Point", "coordinates": [ 121.523167774072462, 25.060123102298164 ] } },
{ "type": "Feature", "properties": { "OBJECTID": 183.0, "code": "B02020032", "name": "士林工坊", "attr": "公設民營", "type": "社區日間作業設施", "town": "士林區", "address": "臺北市士林區忠誠路二段53巷7號9樓A", "tel": "28322807", "fax": null, "x": 303689.90625, "y": 2778225.0, "lng": 121.53237915, "lat": 25.11142349, "is_accessi": "是", "_id": null, "_importdate": null, "addr": null }, "geometry": { "type": "Point", "coordinates": [ 121.532375357083936, 25.111423740926853 ] } },
{ "type": "Feature", "properties": { "OBJECTID": 184.0, "code": "B06020007", "name": "委託辦理臨時及短期照顧服務-社團法人台北市智障者家長協會", "attr": "其他", "type": "委託方案", "town": "大安區", "address": "臺北市大安區建國南路一段321號2樓", "tel": "02-2755-5690", "fax": null, "x": 304312.09375, "y": 2769747.0, "lng": 121.53820801000001, "lat": 25.03486252, "is_accessi": "否", "_id": null, "_importdate": null, "addr": null }, "geometry": { "type": "Point", "coordinates": [ 121.538210077475327, 25.034862981171031 ] } },
{ "type": "Feature", "properties": { "OBJECTID": 185.0, "code": "B01020007", "name": "士林社區居住家園(德蘭家)", "attr": "公設民營", "type": "B0102", "town": "士林區", "address": "臺北市士林區0鄰中山北路七段146巷7、7-1號1樓", "tel": "(02)2874-9917", "fax": null, "x": 303761.6875, "y": 2779534.0, "lng": 121.53314209, "lat": 25.12323761, "is_accessi": "是", "_id": null, "_importdate": null, "addr": null }, "geometry": { "type": "Point", "coordinates": [ 121.533138549400093, 25.123238635577518 ] } },
{ "type": "Feature", "properties": { "OBJECTID": 189.0, "code": "B02020033", "name": "奇岩工坊", "attr": "公設民營", "type": "社區日間作業設施", "town": "北投區", "address": "臺北市北投區三合街一段119號7樓", "tel": "(02)2894-0370", "fax": null, "x": 300814.8125, "y": 2779889.75, "lng": 121.50392914, "lat": 25.12655258, "is_accessi": "是", "_id": null, "_importdate": null, "addr": null }, "geometry": { "type": "Point", "coordinates": [ 121.50392913399692, 25.126554786088494 ] } },
{ "type": "Feature", "properties": { "OBJECTID": 190.0, "code": "B02020033", "name": "奇岩工坊", "attr": "公設民營", "type": "社區日間作業設施", "town": "北投區", "address": "臺北市北投區三合街一段119號7樓", "tel": "(02)2894-0370", "fax": null, "x": 300814.8125, "y": 2779889.75, "lng": 121.50392914, "lat": 25.12655258, "is_accessi": "是", "_id": null, "_importdate": null, "addr": null }, "geometry": { "type": "Point", "coordinates": [ 121.50392913399692, 25.126554786088494 ] } },
{ "type": "Feature", "properties": { "OBJECTID": 191.0, "code": "B02020034", "name": "松山工坊", "attr": "私立", "type": "社區日間作業設施", "town": "松山區", "address": "臺北市松山區新聚里3鄰南京東路五段356號6F-2", "tel": "(02)2748-5810", "fax": null, "x": 307481.40625, "y": 2771555.0, "lng": 121.56969452, "lat": 25.05106735, "is_accessi": "是", "_id": null, "_importdate": null, "addr": null }, "geometry": { "type": "Point", "coordinates": [ 121.569690724167501, 25.051068335684388 ] } },
{ "type": "Feature", "properties": { "OBJECTID": 192.0, "code": "B01020008", "name": "士林社區居住家園(聖露薏絲家)", "attr": "公設民營", "type": "B0102", "town": "士林區", "address": "臺北市士林區中山北路七段191巷9號1樓", "tel": "(02)2874-9917", "fax": null, "x": 303618.90625, "y": 2779770.0, "lng": 121.53173065, "lat": 25.12537384, "is_accessi": "是", "_id": null, "_importdate": null, "addr": null }, "geometry": { "type": "Point", "coordinates": [ 121.531731714820481, 25.125374292477758 ] } },
{ "type": "Feature", "properties": { "OBJECTID": 194.0, "code": "B02020035", "name": "建成工坊", "attr": "公設民營", "type": "社區日間作業設施", "town": "大同區", "address": "臺北市大同區承德路二段33號6樓", "tel": "2362-0218", "fax": null, "x": 302307.0, "y": 2771924.0, "lng": 121.51842499, "lat": 25.05458832, "is_accessi": "否", "_id": null, "_importdate": null, "addr": null }, "geometry": { "type": "Point", "coordinates": [ 121.518423665578823, 25.054587474261432 ] } },
{ "type": "Feature", "properties": { "OBJECTID": 197.0, "code": "B02030007", "name": "臺北市政府社會局委託財團法人天主教白永恩神父社會福利基金會經營管理稻香身障社區長照機構（日間照顧）", "attr": "公設民營", "type": "身障社區長照機構（日間照顧）", "town": "北投區", "address": "臺北市北投區稻香里0鄰稻香路81號3樓之1", "tel": "27229933", "fax": null, "x": 299340.59375, "y": 2781474.0, "lng": 121.48936462, "lat": 25.14090347, "is_accessi": "否", "_id": null, "_importdate": null, "addr": null }, "geometry": { "type": "Point", "coordinates": [ 121.489366940936506, 25.140903946876406 ] } },
{ "type": "Feature", "properties": { "OBJECTID": 198.0, "code": "B02010019", "name": "臺北市稻香發展中心", "attr": "公設民營", "type": "日間服務機構", "town": "北投區", "address": "臺北市北投區稻香里0鄰稻香路81號2樓", "tel": "0917109770", "fax": "02-28986437", "x": 299340.59375, "y": 2781474.0, "lng": 121.48936462, "lat": 25.14090347, "is_accessi": "是", "_id": null, "_importdate": null, "addr": null }, "geometry": { "type": "Point", "coordinates": [ 121.489366940936506, 25.140903946876406 ] } },
{ "type": "Feature", "properties": { "OBJECTID": null, "code": "C01010001", "name": "士林失能身障日照中心", "attr": "待查", "type": "身障社區長照機構(日間照顧)", "town": "士林區", "address": null, "tel": "(02)28810272", "fax": "", "x": null, "y": null, "lng": null, "lat": null, "is_accessi": "", "_id": 1.0, "_importdate": { "date": "2023-06-12 11:35:30.960719", "timezone_type": 3, "timezone": "Asia/Taipei" }, "addr": "臺北市士林區後港街189號一樓" }, "geometry": { "type": "Point", "coordinates": [ 121.520929964144798, 25.088020065977258 ] } },
{ "type": "Feature", "properties": { "OBJECTID": null, "code": "C01010002", "name": "臺北市中山身障社區式長照機構（日間照顧）", "attr": "待查", "type": "身障社區長照機構(日間照顧)", "town": "中山區", "address": null, "tel": "(02)25211032", "fax": "", "x": null, "y": null, "lng": null, "lat": null, "is_accessi": "", "_id": 2.0, "_importdate": { "date": "2023-06-12 11:35:30.969898", "timezone_type": 3, "timezone": "Asia/Taipei" }, "addr": "臺北市中山區長安西路5弄2號四樓" }, "geometry": { "type": "Point", "coordinates": [ 121.52075000468588, 25.049940073886056 ] } },
{ "type": "Feature", "properties": { "OBJECTID": null, "code": "C01010003", "name": "臺北市民生身障社區式長照機構（日間照顧）", "attr": "待查", "type": "身障社區長照機構(日間照顧)", "town": "松山區", "address": null, "tel": "(02)27609605", "fax": "", "x": null, "y": null, "lng": null, "lat": null, "is_accessi": "", "_id": 3.0, "_importdate": { "date": "2023-06-12 11:35:30.971480", "timezone_type": 3, "timezone": "Asia/Taipei" }, "addr": "臺北市松山區民生東路五段163之1號七樓" }, "geometry": { "type": "Point", "coordinates": [ 121.562579975787202, 25.059060087490789 ] } },
{ "type": "Feature", "properties": { "OBJECTID": null, "code": "C01010004", "name": "臺北市信義身障社區式長照機構（日間照顧）", "attr": "待查", "type": "身障社區長照機構(日間照顧)", "town": "信義區", "address": null, "tel": "(02)27229933", "fax": "", "x": null, "y": null, "lng": null, "lat": null, "is_accessi": "", "_id": 4.0, "_importdate": { "date": "2023-06-12 11:35:30.972983", "timezone_type": 3, "timezone": "Asia/Taipei" }, "addr": "臺北市信義區信義路五段15號五樓" }, "geometry": { "type": "Point", "coordinates": [ 121.566900008630711, 25.033140057656347 ] } }
]
}
